$GNGGA,090635.90,2910.10309761,N,11952.94672444,E,1,28,0.7,54.7329,M,8.3452,M,,*7C
$GNTHS,23.0034,A*2F
$GNGGA,090636.00,2910.10309785,N,11952.94672383,E,1,28,0.7,54.7316,M,8.3452,M,,*7C
$GNRMC,090636.00,A,2910.10309785,N,11952.94672383,E,0.003,118.5,260126,5.7,W,A,C*52
$GNTHS,22.9664,A*24
$GNGGA,090636.10,2910.10309806,N,11952.94672327,E,1,28,0.7,54.7304,M,8.3452,M,,*74
$GNTHS,22.9939,A*23
$GNGGA,090636.20,2910.10309831,N,11952.94672276,E,1,28,0.7,54.7291,M,8.3452,M,,*7B
$GNTHS,22.9293,A*28
$GNGGA,090636.30,2910.10309852,N,11952.94672228,E,1,28,0.7,54.7278,M,8.3452,M,,*73
$GNTHS,22.9856,A*2B
$GNGGA,090636.40,2910.10309873,N,11952.94672183,E,1,28,0.7,54.7265,M,8.3452,M,,*79
$GNTHS,22.9608,A*2E
$GNGGA,090636.50,2910.10309896,N,11952.94672147,E,1,28,0.7,54.7253,M,8.3452,M,,*7E
$GNTHS,22.9674,A*25
$GNGGA,090636.60,2910.10309918,N,11952.94672105,E,1,28,0.7,54.7240,M,8.3452,M,,*7E
$GNTHS,22.9522,A*25
$GNGGA,090636.70,2910.10309939,N,11952.94672065,E,1,28,0.7,54.7228,M,8.3452,M,,*75
$GNTHS,23.0223,A*2B
$GNGGA,090636.80,2910.10309963,N,11952.94672026,E,1,28,0.7,54.7215,M,8.3452,M,,*7C
$GNTHS,22.9823,A*29
$GNGGA,090636.90,2910.10309988,N,11952.94671988,E,1,28,0.7,54.7204,M,8.3452,M,,*76
$GNTHS,22.9685,A*2B
$GNGGA,090637.00,2910.10310007,N,11952.94671950,E,1,28,0.7,54.7192,M,8.3452,M,,*71
$GNRMC,090637.00,A,2910.10310007,N,11952.94671950,E,0.005,94.0,260126,5.7,W,A,C*67
$GNTHS,22.9829,A*23
$GNGGA,090637.10,2910.10310028,N,11952.94671914,E,1,28,0.7,54.7181,M,8.3452,M,,*7F
$GNTHS,22.9768,A*29
$GNGGA,090637.20,2910.10310051,N,11952.94671882,E,1,28,0.7,54.7169,M,8.3452,M,,*7A
$GNTHS,22.9520,A*27
$GNGGA,090637.30,2910.10310077,N,11952.94671844,E,1,28,0.7,54.7158,M,8.3452,M,,*77
$GNTHS,22.9923,A*28
$GNGGA,090637.40,2910.10310095,N,11952.94671811,E,1,28,0.7,54.7146,M,8.3452,M,,*73
$GNTHS,22.9503,A*26
$GNGGA,090637.50,2910.10310112,N,11952.94671784,E,1,28,0.7,54.7134,M,8.3452,M,,*7A
$GNTHS,22.9763,A*22
$GNGGA,090637.60,2910.10310132,N,11952.94671751,E,1,28,0.7,54.7122,M,8.3452,M,,*74
$GNTHS,22.9982,A*23
$GNGGA,090637.70,2910.10310154,N,11952.94671717,E,1,28,0.7,54.7110,M,8.3452,M,,*76
$GNTHS,22.9783,A*2C
$GNGGA,090637.80,2910.10310173,N,11952.94671677,E,1,28,0.7,54.7098,M,8.3452,M,,*7A
$GNTHS,22.9748,A*2B
$GNGGA,090637.90,2910.10310194,N,11952.94671643,E,1,28,0.7,54.7086,M,8.3452,M,,*7A
$GNTHS,23.0037,A*2C
$GNGGA,090638.00,2910.10310210,N,11952.94671617,E,1,28,0.7,54.7074,M,8.3452,M,,*7F
$GNRMC,090638.00,A,2910.10310210,N,11952.94671617,E,0.004,78.6,260126,5.7,W,A,C*65
$GNTHS,22.9716,A*20
$GNGGA,090638.10,2910.10310225,N,11952.94671592,E,1,28,0.7,54.7062,M,8.3452,M,,*71
$GNTHS,22.9576,A*24
$GNGGA,090638.20,2910.10310235,N,11952.94671568,E,1,28,0.7,54.7050,M,8.3452,M,,*77
$GNTHS,22.9792,A*2C
$GNGGA,090638.30,2910.10310256,N,11952.94671545,E,1,28,0.7,54.7039,M,8.3452,M,,*73
$GNTHS,22.9704,A*23
$GNGGA,090638.40,2910.10310275,N,11952.94671522,E,1,28,0.7,54.7027,M,8.3452,M,,*7B
$GNTHS,23.0028,A*22
$GNGGA,090638.50,2910.10310296,N,11952.94671493,E,1,28,0.7,54.7015,M,8.3452,M,,*7D
$GNTHS,23.0764,A*2D
$GNGGA,090638.60,2910.10310312,N,11952.94671465,E,1,28,0.7,54.7004,M,8.3452,M,,*7A
$GNTHS,23.0372,A*2E
$GNGGA,090638.70,2910.10310333,N,11952.94671440,E,1,28,0.7,54.6992,M,8.3452,M,,*78
$GNTHS,22.9642,A*20
$GNGGA,090638.80,2910.10310357,N,11952.94671417,E,1,28,0.7,54.6981,M,8.3452,M,,*75
$GNTHS,22.9454,A*25
$GNGGA,090638.90,2910.10310370,N,11952.94671387,E,1,28,0.7,54.6970,M,8.3452,M,,*71
$GNTHS,22.9473,A*20
$GNGGA,090639.00,2910.10310385,N,11952.94671359,E,1,28,0.7,54.6959,M,8.3452,M,,*7B
$GNRMC,090639.00,A,2910.10310385,N,11952.94671359,E,0.003,83.0,260126,5.7,W,A,C*63
$GNTHS,23.0251,A*2E
$GNGGA,090639.10,2910.10310405,N,11952.94671329,E,1,28,0.7,54.6949,M,8.3452,M,,*73
$GNTHS,23.0130,A*2A
$GNGGA,090639.20,2910.10310424,N,11952.94671303,E,1,28,0.7,54.6938,M,8.3452,M,,*7D
$GNTHS,23.0125,A*2E
$GNGGA,090639.30,2910.10310437,N,11952.94671278,E,1,28,0.7,54.6928,M,8.3452,M,,*72
$GNTHS,22.9614,A*23
$GNGGA,090639.40,2910.10310457,N,11952.94671252,E,1,28,0.7,54.6918,M,8.3452,M,,*78
$GNTHS,22.9674,A*25
$GNGGA,090639.50,2910.10310471,N,11952.94671229,E,1,28,0.7,54.6908,M,8.3452,M,,*70
$GNTHS,22.9757,A*25
$GNGGA,090639.60,2910.10310486,N,11952.94671206,E,1,28,0.7,54.6899,M,8.3452,M,,*7F
$GNTHS,22.9825,A*2F
$GNGGA,090639.70,2910.10310505,N,11952.94671185,E,1,28,0.7,54.6889,M,8.3452,M,,*7D
$GNTHS,22.9356,A*20
$GNGGA,090639.80,2910.10310526,N,11952.94671161,E,1,28,0.7,54.6880,M,8.3452,M,,*70
$GNTHS,23.0063,A*2D
$GNGGA,090639.90,2910.10310541,N,11952.94671138,E,1,28,0.7,54.6870,M,8.3452,M,,*73
$GNTHS,22.9284,A*2E
$GNGGA,090640.00,2910.10310551,N,11952.94671121,E,1,28,0.7,54.6861,M,8.3452,M,,*7D
$GNRMC,090640.00,A,2910.10310551,N,11952.94671121,E,0.004,105.7,260126,5.7,W,A,C*50
$GNTHS,22.9614,A*23
$GNGGA,090640.10,2910.10310564,N,11952.94671097,E,1,28,0.7,54.6852,M,8.3452,M,,*76
$GNTHS,23.0180,A*21
$GNGGA,090640.20,2910.10310576,N,11952.94671079,E,1,28,0.7,54.6844,M,8.3452,M,,*71
$GNTHS,23.0227,A*2F
$GNGGA,090640.30,2910.10310586,N,11952.94671065,E,1,28,0.7,54.6835,M,8.3452,M,,*74
$GNTHS,22.9852,A*2F
$GNGGA,090640.40,2910.10310604,N,11952.94671046,E,1,28,0.7,54.6826,M,8.3452,M,,*79
$GNTHS,23.0250,A*2F
$GNGGA,090640.50,2910.10310618,N,11952.94671031,E,1,28,0.7,54.6817,M,8.3452,M,,*77
$GNTHS,22.9918,A*20
$GNGGA,090640.60,2910.10310631,N,11952.94671014,E,1,28,0.7,54.6809,M,8.3452,M,,*77
$GNTHS,22.9798,A*26
$GNGGA,090640.70,2910.10310643,N,11952.94670995,E,1,28,0.7,54.6801,M,8.3452,M,,*7A
$GNTHS,23.0381,A*22
$GNGGA,090640.80,2910.10310655,N,11952.94670980,E,1,28,0.7,54.6793,M,8.3452,M,,*72
$GNTHS,22.9712,A*24
$GNGGA,090640.90,2910.10310676,N,11952.94670959,E,1,28,0.7,54.6786,M,8.3452,M,,*72
$GNTHS,22.9971,A*2F
$GNGGA,090641.00,2910.10310693,N,11952.94670946,E,1,28,0.7,54.6779,M,8.3452,M,,*7F
$GNRMC,090641.00,A,2910.10310693,N,11952.94670946,E,0.004,94.4,260126,5.7,W,A,C*6E
$GNTHS,22.9775,A*25
$GNGGA,090641.10,2910.10310707,N,11952.94670937,E,1,28,0.7,54.6772,M,8.3452,M,,*7F
$GNTHS,22.9567,A*24
$GNGGA,090641.20,2910.10310718,N,11952.94670925,E,1,28,0.7,54.6766,M,8.3452,M,,*74
$GNTHS,22.9391,A*2B
$GNGGA,090641.30,2910.10310732,N,11952.94670911,E,1,28,0.7,54.6761,M,8.3452,M,,*7D
$GNTHS,22.9004,A*24
$GNGGA,090641.40,2910.10310745,N,11952.94670900,E,1,28,0.7,54.6755,M,8.3452,M,,*7D
$GNTHS,22.9580,A*2D
$GNGGA,090641.50,2910.10310757,N,11952.94670887,E,1,28,0.7,54.6749,M,8.3452,M,,*7C
$GNTHS,22.9283,A*29
$GNGGA,090641.60,2910.10310773,N,11952.94670869,E,1,28,0.7,54.6744,M,8.3452,M,,*74
$GNTHS,23.0081,A*21
$GNGGA,090641.70,2910.10310787,N,11952.94670854,E,1,28,0.7,54.6738,M,8.3452,M,,*7B
$GNTHS,22.9823,A*29
$GNGGA,090641.80,2910.10310802,N,11952.94670837,E,1,28,0.7,54.6733,M,8.3452,M,,*78
$GNTHS,23.0023,A*29
$GNGGA,090641.90,2910.10310818,N,11952.94670822,E,1,28,0.7,54.6728,M,8.3452,M,,*7C
$GNTHS,23.0529,A*26
$GNGGA,090642.00,2910.10310835,N,11952.94670811,E,1,28,0.7,54.6723,M,8.3452,M,,*72
$GNRMC,090642.00,A,2910.10310835,N,11952.94670811,E,0.003,102.5,260126,5.7,W,A,C*54
$GNTHS,22.9821,A*2B
$GNGGA,090642.10,2910.10310854,N,11952.94670798,E,1,28,0.7,54.6718,M,8.3452,M,,*72
$GNTHS,23.0339,A*21
$GNGGA,090642.20,2910.10310870,N,11952.94670788,E,1,28,0.7,54.6713,M,8.3452,M,,*7D
$GNTHS,22.9417,A*22
$GNGGA,090642.30,2910.10310885,N,11952.94670774,E,1,28,0.7,54.6708,M,8.3452,M,,*7F
$GNTHS,23.0059,A*24
$GNGGA,090642.40,2910.10310900,N,11952.94670756,E,1,28,0.7,54.6704,M,8.3452,M,,*78
$GNTHS,23.0136,A*2C
$GNGGA,090642.50,2910.10310912,N,11952.94670742,E,1,28,0.7,54.6699,M,8.3452,M,,*7A
$GNTHS,22.9783,A*2C
$GNGGA,090642.60,2910.10310930,N,11952.94670730,E,1,28,0.7,54.6695,M,8.3452,M,,*70
$GNTHS,22.9556,A*26
$GNGGA,090642.70,2910.10310947,N,11952.94670715,E,1,28,0.7,54.6691,M,8.3452,M,,*72
$GNTHS,22.9744,A*27
$GNGGA,090642.80,2910.10310954,N,11952.94670694,E,1,28,0.7,54.6687,M,8.3452,M,,*70
$GNTHS,22.8765,A*25
$GNGGA,090642.90,2910.10310474,N,11952.94670497,E,1,28,0.7,54.6682,M,8.3452,M,,*7A
$GNTHS,22.2430,A*2C
$GNGGA,090643.00,2910.10308195,N,11952.94670850,E,1,28,0.7,54.6687,M,8.3452,M,,*73
$GNRMC,090643.00,A,2910.10308195,N,11952.94670850,E,0.821,171.7,260126,5.7,W,A,C*54
$GNTHS,20.5986,A*29
$GNGGA,090643.10,2910.10303977,N,11952.94671767,E,1,28,0.7,54.6740,M,8.3452,M,,*7D
$GNTHS,18.0383,A*28
$GNGGA,090643.20,2910.10298233,N,11952.94672529,E,1,28,0.7,54.6711,M,8.3452,M,,*79
$GNTHS,14.6079,A*24
$GNGGA,090643.30,2910.10291886,N,11952.94674165,E,1,28,0.7,54.6656,M,8.3452,M,,*7D
$GNTHS,10.4524,A*2F
$GNGGA,090643.40,2910.10284964,N,11952.94676945,E,1,28,0.7,54.6638,M,8.3452,M,,*73
$GNTHS,5.4890,A*19
$GNGGA,090643.50,2910.10277114,N,11952.94680342,E,1,28,0.7,54.6620,M,8.3452,M,,*7C
$GNTHS,0.0546,A*1E
$GNGGA,090643.60,2910.10269635,N,11952.94684499,E,1,28,0.7,54.6582,M,8.3452,M,,*7A
$GNTHS,354.0548,A*12
$GNGGA,090643.70,2910.10262214,N,11952.94690035,E,1,28,0.7,54.6536,M,8.3452,M,,*7F
$GNTHS,347.6513,A*18
$GNGGA,090643.80,2910.10254533,N,11952.94697034,E,1,28,0.7,54.6490,M,8.3452,M,,*7C
$GNTHS,341.0411,A*1B
$GNGGA,090643.90,2910.10247829,N,11952.94705327,E,1,28,0.7,54.6451,M,8.3452,M,,*7F
$GNTHS,334.3647,A*1B
$GNGGA,090644.00,2910.10242247,N,11952.94713890,E,1,28,0.7,54.6404,M,8.3452,M,,*76
$GNRMC,090644.00,A,2910.10242247,N,11952.94713890,E,3.452,126.6,260126,5.7,W,A,C*50
$GNTHS,328.2809,A*13
$GNGGA,090644.10,2910.10239013,N,11952.94721555,E,1,28,0.7,54.6411,M,8.3452,M,,*79
$GNTHS,322.7991,A*1C
$GNGGA,090644.20,2910.10237594,N,11952.94728646,E,1,28,0.7,54.6515,M,8.3452,M,,*73
$GNTHS,317.9068,A*1B
$GNGGA,090644.30,2910.10236157,N,11952.94736272,E,1,28,0.7,54.6629,M,8.3452,M,,*78
$GNTHS,312.8094,A*1C
$GNGGA,090644.40,2910.10234174,N,11952.94744586,E,1,28,0.7,54.6657,M,8.3452,M,,*7C
$GNTHS,307.5581,A*14
$GNGGA,090644.50,2910.10232054,N,11952.94753406,E,1,28,0.7,54.6622,M,8.3453,M,,*74
$GNTHS,302.3082,A*11
$GNGGA,090644.60,2910.10230698,N,11952.94762978,E,1,28,0.7,54.6578,M,8.3453,M,,*79
$GNTHS,296.6326,A*15
$GNGGA,090644.70,2910.10230518,N,11952.94773328,E,1,28,0.7,54.6545,M,8.3453,M,,*72
$GNTHS,290.5857,A*1D
$GNGGA,090644.80,2910.10231970,N,11952.94784063,E,1,28,0.7,54.6550,M,8.3453,M,,*7E
$GNTHS,284.1677,A*10
$GNGGA,090644.90,2910.10235066,N,11952.94794615,E,1,28,0.7,54.6631,M,8.3453,M,,*77
$GNTHS,277.4729,A*13
$GNGGA,090645.00,2910.10238906,N,11952.94805436,E,1,28,0.7,54.6669,M,8.3453,M,,*74
$GNRMC,090645.00,A,2910.10238906,N,11952.94805436,E,3.760,67.4,260126,5.7,W,A,C*6E
$GNTHS,270.7744,A*1C
$GNGGA,090645.10,2910.10243500,N,11952.94815578,E,1,28,0.7,54.6686,M,8.3453,M,,*78
$GNTHS,264.1224,A*1C
$GNGGA,090645.20,2910.10248381,N,11952.94824939,E,1,28,0.7,54.6663,M,8.3453,M,,*7F
$GNTHS,257.4070,A*1A
$GNGGA,090645.30,2910.10253492,N,11952.94833960,E,1,28,0.7,54.6512,M,8.3453,M,,*7E
$GNTHS,251.1209,A*15
$GNGGA,090645.40,2910.10257573,N,11952.94838879,E,1,28,0.7,54.6526,M,8.3453,M,,*76
$GNTHS,246.8905,A*1D
$GNGGA,090645.50,2910.10258747,N,11952.94839034,E,1,28,0.7,54.6718,M,8.3453,M,,*72
$GNTHS,245.1967,A*13
$GNGGA,090645.60,2910.10256829,N,11952.94837440,E,1,28,0.7,54.6758,M,8.3453,M,,*75
$GNTHS,245.3653,A*19
$GNGGA,090645.70,2910.10253705,N,11952.94835308,E,1,28,0.7,54.6716,M,8.3453,M,,*73
$GNTHS,246.0103,A*1B
$GNGGA,090645.80,2910.10252170,N,11952.94834369,E,1,28,0.7,54.6693,M,8.3453,M,,*73
$GNTHS,245.8225,A*17
$GNGGA,090645.90,2910.10252080,N,11952.94835526,E,1,28,0.7,54.6668,M,8.3453,M,,*74
$GNTHS,245.6250,A*1B
$GNGGA,090646.00,2910.10251516,N,11952.94837709,E,1,28,0.7,54.6645,M,8.3453,M,,*75
$GNRMC,090646.00,A,2910.10251516,N,11952.94837709,E,0.689,108.1,260126,5.7,W,A,C*59
$GNTHS,245.7084,A*11
$GNGGA,090646.10,2910.10249589,N,11952.94839281,E,1,28,0.7,54.6683,M,8.3453,M,,*7A
$GNTHS,245.7866,A*15
$GNGGA,090646.20,2910.10246168,N,11952.94840202,E,1,28,0.7,54.6766,M,8.3453,M,,*72
$GNTHS,245.9536,A*13
$GNGGA,090646.30,2910.10241552,N,11952.94841605,E,1,28,0.7,54.6827,M,8.3453,M,,*71
$GNTHS,246.0652,A*18
$GNGGA,090646.40,2910.10236012,N,11952.94844413,E,1,28,0.7,54.6703,M,8.3453,M,,*7E
$GNTHS,246.0885,A*1C
$GNGGA,090646.50,2910.10230658,N,11952.94848423,E,1,28,0.7,54.6585,M,8.3453,M,,*72
$GNTHS,245.5912,A*15
$GNGGA,090646.60,2910.10227047,N,11952.94852264,E,1,28,0.7,54.6706,M,8.3453,M,,*78
$GNTHS,244.6614,A*1E
$GNGGA,090646.70,2910.10224340,N,11952.94856293,E,1,28,0.7,54.6851,M,8.3453,M,,*7F
$GNTHS,243.3741,A*1D
$GNGGA,090646.80,2910.10220885,N,11952.94862009,E,1,28,0.7,54.6740,M,8.3453,M,,*7F
$GNTHS,241.8444,A*12
$GNGGA,090646.90,2910.10216976,N,11952.94867593,E,1,28,0.7,54.6711,M,8.3453,M,,*71
$GNTHS,239.9383,A*10
$GNGGA,090647.00,2910.10213758,N,11952.94873386,E,1,28,0.7,54.6759,M,8.3453,M,,*75
$GNRMC,090647.00,A,2910.10213758,N,11952.94873386,E,2.190,122.8,260126,5.7,W,A,C*59
$GNTHS,237.5430,A*1D
$GNGGA,090647.10,2910.10211059,N,11952.94879903,E,1,28,0.7,54.6779,M,8.3453,M,,*7F
$GNTHS,235.1076,A*1D
$GNGGA,090647.20,2910.10208777,N,11952.94887133,E,1,28,0.7,54.6694,M,8.3454,M,,*70
$GNTHS,232.2410,A*1D
$GNGGA,090647.30,2910.10208026,N,11952.94893434,E,1,28,0.7,54.6693,M,8.3454,M,,*72
$GNTHS,229.0669,A*19
$GNGGA,090647.40,2910.10209179,N,11952.94898647,E,1,28,0.7,54.6823,M,8.3454,M,,*77
$GNTHS,225.3957,A*14
$GNGGA,090647.50,2910.10210835,N,11952.94904339,E,1,28,0.7,54.6860,M,8.3454,M,,*70
$GNTHS,221.7090,A*16
$GNGGA,090647.60,2910.10211034,N,11952.94910157,E,1,28,0.7,54.6950,M,8.3454,M,,*76
$GNTHS,218.8215,A*1C
$GNGGA,090647.70,2910.10210044,N,11952.94916871,E,1,28,0.7,54.7087,M,8.3454,M,,*78
$GNTHS,216.2324,A*1B
$GNGGA,090647.80,2910.10208484,N,11952.94925760,E,1,28,0.7,54.7097,M,8.3454,M,,*78
$GNTHS,213.8255,A*13
$GNGGA,090647.90,2910.10206333,N,11952.94935612,E,1,28,0.7,54.6991,M,8.3454,M,,*77
$GNTHS,211.5642,A*1E
$GNGGA,090648.00,2910.10203746,N,11952.94945760,E,1,28,0.7,54.6873,M,8.3454,M,,*7C
$GNRMC,090648.00,A,2910.10203746,N,11952.94945760,E,3.371,106.1,260126,5.7,W,A,C*53
$GNTHS,209.6412,A*13
$GNGGA,090648.10,2910.10200373,N,11952.94956338,E,1,28,0.7,54.6825,M,8.3454,M,,*74
$GNTHS,208.3609,A*1F
$GNGGA,090648.20,2910.10196177,N,11952.94967319,E,1,28,0.7,54.6878,M,8.3454,M,,*74
$GNTHS,207.4342,A*1D
$GNGGA,090648.30,2910.10191133,N,11952.94978471,E,1,28,0.7,54.7004,M,8.3454,M,,*77
$GNTHS,207.1980,A*1C
$GNGGA,090648.40,2910.10185560,N,11952.94990517,E,1,28,0.7,54.7027,M,8.3454,M,,*71
$GNTHS,207.2692,A*13
$GNGGA,090648.50,2910.10179338,N,11952.95003344,E,1,28,0.7,54.6901,M,8.3454,M,,*76
$GNTHS,207.2434,A*1D
$GNGGA,090648.60,2910.10172975,N,11952.95016724,E,1,28,0.7,54.6713,M,8.3454,M,,*76
$GNTHS,207.2467,A*1B
$GNGGA,090648.70,2910.10167257,N,11952.95029835,E,1,28,0.7,54.6540,M,8.3455,M,,*7E
$GNTHS,207.3431,A*19
$GNGGA,090648.80,2910.10162238,N,11952.95041741,E,1,28,0.7,54.6600,M,8.3455,M,,*78
$GNTHS,207.4201,A*1B
$GNGGA,090648.90,2910.10157437,N,11952.95053363,E,1,28,0.7,54.6662,M,8.3455,M,,*75
$GNTHS,207.4467,A*1D
$GNGGA,090649.00,2910.10152389,N,11952.95065282,E,1,28,0.7,54.6719,M,8.3455,M,,*7C
$GNRMC,090649.00,A,2910.10152389,N,11952.95065282,E,4.218,115.7,260126,5.7,W,A,C*5C
$GNTHS,207.3863,A*12
$GNGGA,090649.10,2910.10146928,N,11952.95077332,E,1,28,0.7,54.6769,M,8.3455,M,,*77
$GNTHS,207.4214,A*1F
$GNGGA,090649.20,2910.10141300,N,11952.95089643,E,1,28,0.7,54.6746,M,8.3455,M,,*7C
$GNTHS,207.4961,A*16
$GNGGA,090649.30,2910.10136075,N,11952.95101669,E,1,28,0.7,54.6795,M,8.3455,M,,*7B
$GNTHS,207.4393,A*11
$GNGGA,090649.40,2910.10130817,N,11952.95113689,E,1,28,0.7,54.6831,M,8.3455,M,,*7A
$GNTHS,207.4408,A*14
$GNGGA,090649.50,2910.10125489,N,11952.95125298,E,1,28,0.7,54.6896,M,8.3455,M,,*78
$GNTHS,207.4533,A*1D
$GNGGA,090649.60,2910.10120300,N,11952.95136941,E,1,28,0.7,54.6970,M,8.3455,M,,*7C
$GNTHS,207.4108,A*11
$GNGGA,090649.70,2910.10114945,N,11952.95149222,E,1,28,0.7,54.7042,M,8.3455,M,,*7E
$GNTHS,207.4286,A*14
$GNGGA,090649.80,2910.10109456,N,11952.95161637,E,1,28,0.7,54.7090,M,8.3456,M,,*74
$GNTHS,207.4780,A*17
$GNGGA,090649.90,2910.10103779,N,11952.95174072,E,1,28,0.7,54.7120,M,8.3456,M,,*78
$GNTHS,207.4971,A*17
$GNGGA,090650.00,2910.10098134,N,11952.95186476,E,1,28,0.7,54.7128,M,8.3456,M,,*70
$GNRMC,090650.00,A,2910.10098134,N,11952.95186476,E,4.444,117.4,260126,5.7,W,A,C*58
$GNTHS,207.5798,A*1F
$GNGGA,090650.10,2910.10092475,N,11952.95198777,E,1,28,0.7,54.7137,M,8.3456,M,,*78
$GNTHS,207.5704,A*1A
$GNGGA,090650.20,2910.10086779,N,11952.95211464,E,1,28,0.7,54.7028,M,8.3456,M,,*7D
$GNTHS,207.7092,A*10
$GNGGA,090650.30,2910.10080830,N,11952.95224889,E,1,28,0.7,54.6823,M,8.3456,M,,*73
$GNTHS,207.7760,A*1A
$GNGGA,090650.40,2910.10075025,N,11952.95237782,E,1,28,0.7,54.6703,M,8.3456,M,,*79
$GNTHS,207.7015,A*1F
$GNGGA,090650.50,2910.10069994,N,11952.95249679,E,1,28,0.7,54.6709,M,8.3456,M,,*70
$GNTHS,207.3580,A*12
$GNGGA,090650.60,2910.10065684,N,11952.95261089,E,1,28,0.7,54.6719,M,8.3456,M,,*73
$GNTHS,206.9370,A*10
$GNGGA,090650.70,2910.10061634,N,11952.95271911,E,1,28,0.7,54.6736,M,8.3456,M,,*79
$GNTHS,206.2691,A*11
$GNGGA,090650.80,2910.10058201,N,11952.95281448,E,1,28,0.7,54.6956,M,8.3456,M,,*78
$GNTHS,205.4680,A*14
$GNGGA,090650.90,2910.10055739,N,11952.95290110,E,1,28,0.7,54.7272,M,8.3456,M,,*7E
$GNTHS,204.6113,A*1A
$GNGGA,090651.00,2910.10053679,N,11952.95299768,E,1,28,0.7,54.7323,M,8.3457,M,,*71
$GNRMC,090651.00,A,2910.10053679,N,11952.95299768,E,3.120,103.4,260126,5.7,W,A,C*54
$GNTHS,203.5320,A*1C
$GNGGA,090651.10,2910.10050992,N,11952.95309996,E,1,28,0.7,54.7215,M,8.3457,M,,*7A
$GNTHS,202.1985,A*1C
$GNGGA,090651.20,2910.10049074,N,11952.95320421,E,1,28,0.7,54.6990,M,8.3457,M,,*7D
$GNTHS,200.6117,A*1A
$GNGGA,090651.30,2910.10048703,N,11952.95329677,E,1,28,0.7,54.6845,M,8.3457,M,,*7B
$GNTHS,198.2529,A*15
$GNGGA,090651.40,2910.10050586,N,11952.95337662,E,1,28,0.7,54.6805,M,8.3457,M,,*75
$GNTHS,195.0476,A*11
$GNGGA,090651.50,2910.10055317,N,11952.95345307,E,1,28,0.7,54.6666,M,8.3457,M,,*77
$GNTHS,191.2443,A*11
$GNGGA,090651.60,2910.10061868,N,11952.95351410,E,1,28,0.7,54.6461,M,8.3457,M,,*71
$GNTHS,186.3675,A*11
$GNGGA,090651.70,2910.10068788,N,11952.95353783,E,1,28,0.7,54.6381,M,8.3457,M,,*7A
$GNTHS,180.6243,A*13
$GNGGA,090651.80,2910.10075026,N,11952.95353051,E,1,28,0.7,54.6685,M,8.3457,M,,*73
$GNTHS,175.0354,A*18
$GNGGA,090651.90,2910.10081871,N,11952.95352565,E,1,28,0.7,54.7002,M,8.3457,M,,*78
$GNTHS,169.7304,A*17
$GNGGA,090652.00,2910.10091169,N,11952.95354339,E,1,28,0.7,54.6923,M,8.3457,M,,*71
$GNRMC,090652.00,A,2910.10091169,N,11952.95354339,E,3.453,7.9,260126,5.7,W,A,C*56
$GNTHS,165.1572,A*1A
$GNGGA,090652.10,2910.10099411,N,11952.95356001,E,1,28,0.7,54.6975,M,8.3457,M,,*7B
$GNTHS,161.6712,A*1D
$GNGGA,090652.20,2910.10103545,N,11952.95357570,E,1,28,0.7,54.7214,M,8.3457,M,,*75
$GNTHS,158.5649,A*1B
$GNGGA,090652.30,2910.10104772,N,11952.95359170,E,1,28,0.7,54.7677,M,8.3457,M,,*7E
$GNTHS,155.7326,A*18
$GNGGA,090652.40,2910.10106248,N,11952.95361835,E,1,28,0.7,54.8021,M,8.3457,M,,*7E
$GNTHS,153.4690,A*15
$GNGGA,090652.50,2910.10111003,N,11952.95365750,E,1,28,0.7,54.7949,M,8.3457,M,,*74
$GNTHS,151.4020,A*1A
$GNGGA,090652.60,2910.10118769,N,11952.95370401,E,1,28,0.7,54.7385,M,8.3457,M,,*7C
$GNTHS,149.3672,A*15
$GNGGA,090652.70,2910.10127576,N,11952.95374709,E,1,28,0.7,54.6778,M,8.3457,M,,*75
$GNTHS,146.9388,A*10
$GNGGA,090652.80,2910.10134527,N,11952.95378197,E,1,28,0.7,54.6543,M,8.3457,M,,*7B
$GNTHS,144.1616,A*18
$GNGGA,090652.90,2910.10140034,N,11952.95380355,E,1,28,0.7,54.6731,M,8.3457,M,,*72
$GNTHS,140.6695,A*10
$GNGGA,090653.00,2910.10146056,N,11952.95381832,E,1,28,0.7,54.6886,M,8.3457,M,,*70
$GNRMC,090653.00,A,2910.10146056,N,11952.95381832,E,2.253,11.0,260126,5.7,W,A,C*60
$GNTHS,137.0945,A*14
$GNGGA,090653.10,2910.10153098,N,11952.95383805,E,1,28,0.7,54.6704,M,8.3457,M,,*74
$GNTHS,133.6772,A*1C
$GNGGA,090653.20,2910.10159992,N,11952.95386215,E,1,28,0.7,54.6528,M,8.3457,M,,*7C
$GNTHS,130.8339,A*1A
$GNGGA,090653.30,2910.10164987,N,11952.95387760,E,1,28,0.7,54.6692,M,8.3457,M,,*73
$GNTHS,127.5996,A*1E
$GNGGA,090653.40,2910.10169578,N,11952.95387206,E,1,28,0.7,54.7190,M,8.3457,M,,*74
$GNTHS,124.4872,A*17
$GNGGA,090653.50,2910.10176863,N,11952.95385415,E,1,28,0.7,54.7444,M,8.3457,M,,*76
$GNTHS,121.4756,A*1B
$GNGGA,090653.60,2910.10187463,N,11952.95383166,E,1,28,0.7,54.6987,M,8.3457,M,,*73
$GNTHS,118.4678,A*1C
$GNGGA,090653.70,2910.10197436,N,11952.95383441,E,1,28,0.7,54.6527,M,8.3457,M,,*75
$GNTHS,116.0002,A*1D
$GNGGA,090653.80,2910.10204350,N,11952.95385879,E,1,28,0.7,54.6505,M,8.3457,M,,*75
$GNTHS,113.8868,A*14
$GNGGA,090653.90,2910.10209895,N,11952.95387711,E,1,28,0.7,54.6802,M,8.3457,M,,*72
$GNTHS,111.6871,A*10
$GNGGA,090654.00,2910.10216263,N,11952.95387208,E,1,28,0.7,54.7025,M,8.3456,M,,*71
$GNRMC,090654.00,A,2910.10216263,N,11952.95387208,E,2.310,355.5,260126,5.7,W,A,C*50
$GNTHS,109.2135,A*14
$GNGGA,090654.10,2910.10223763,N,11952.95385348,E,1,28,0.7,54.7001,M,8.3456,M,,*72
$GNTHS,106.7616,A*18
$GNGGA,090654.20,2910.10231740,N,11952.95383447,E,1,28,0.7,54.6884,M,8.3456,M,,*79
$GNTHS,104.3367,A*1D
$GNGGA,090654.30,2910.10238463,N,11952.95382033,E,1,28,0.7,54.6834,M,8.3456,M,,*7E
$GNTHS,101.8783,A*1D
$GNGGA,090654.40,2910.10244006,N,11952.95380614,E,1,28,0.7,54.6968,M,8.3456,M,,*7C
$GNTHS,99.7220,A*2E
$GNGGA,090654.50,2910.10250526,N,11952.95378956,E,1,28,0.7,54.6987,M,8.3456,M,,*70
$GNTHS,98.1529,A*27
$GNGGA,090654.60,2910.10258229,N,11952.95379480,E,1,28,0.7,54.6803,M,8.3456,M,,*79
$GNTHS,97.7299,A*22
$GNGGA,090654.70,2910.10265159,N,11952.95381366,E,1,28,0.7,54.6631,M,8.3456,M,,*75
$GNTHS,98.0348,A*27
$GNGGA,090654.80,2910.10269964,N,11952.95383763,E,1,28,0.7,54.6654,M,8.3456,M,,*70
$GNTHS,97.8773,A*2C
$GNGGA,090654.90,2910.10273557,N,11952.95385065,E,1,28,0.7,54.6713,M,8.3456,M,,*73
$GNTHS,98.1939,A*2A
$GNGGA,090655.00,2910.10276665,N,11952.95385171,E,1,28,0.7,54.6749,M,8.3456,M,,*77
$GNRMC,090655.00,A,2910.10276665,N,11952.95385171,E,1.093,1.3,260126,5.7,W,A,C*55
$GNTHS,98.1766,A*2E
$GNGGA,090655.10,2910.10279849,N,11952.95384423,E,1,28,0.7,54.6770,M,8.3456,M,,*70
$GNTHS,97.5108,A*2B
$GNGGA,090655.20,2910.10283450,N,11952.95382885,E,1,28,0.7,54.6790,M,8.3456,M,,*7A
$GNTHS,96.2454,A*21
$GNGGA,090655.30,2910.10287999,N,11952.95380389,E,1,28,0.7,54.6790,M,8.3456,M,,*72
$GNTHS,94.6166,A*23
$GNGGA,090655.40,2910.10293488,N,11952.95377015,E,1,28,0.7,54.6717,M,8.3456,M,,*7C
$GNTHS,92.9125,A*2D
$GNGGA,090655.50,2910.10299151,N,11952.95374354,E,1,28,0.7,54.6721,M,8.3456,M,,*76
$GNTHS,91.0537,A*20
$GNGGA,090655.60,2910.10305180,N,11952.95372184,E,1,28,0.7,54.6755,M,8.3456,M,,*77
$GNTHS,89.7268,A*23
$GNGGA,090655.70,2910.10311619,N,11952.95370441,E,1,28,0.7,54.6792,M,8.3456,M,,*71
$GNTHS,88.2568,A*20
$GNGGA,090655.80,2910.10318405,N,11952.95368691,E,1,28,0.7,54.6833,M,8.3456,M,,*7A
$GNTHS,87.0106,A*21
$GNGGA,090655.90,2910.10325563,N,11952.95366276,E,1,28,0.7,54.6875,M,8.3456,M,,*75
$GNTHS,85.6023,A*23
$GNGGA,090656.00,2910.10333259,N,11952.95363596,E,1,28,0.7,54.6925,M,8.3456,M,,*7E
$GNRMC,090656.00,A,2910.10333259,N,11952.95363596,E,2.925,342.6,260126,5.7,W,A,C*5E
$GNTHS,84.2195,A*2A
$GNGGA,090656.10,2910.10341051,N,11952.95360724,E,1,28,0.7,54.6977,M,8.3456,M,,*7F
$GNTHS,83.0155,A*23
$GNGGA,090656.20,2910.10349288,N,11952.95357857,E,1,28,0.7,54.7014,M,8.3456,M,,*70
$GNTHS,81.7383,A*2F
$GNGGA,090656.30,2910.10357624,N,11952.95354295,E,1,28,0.7,54.6983,M,8.3456,M,,*7D
$GNTHS,80.3110,A*22
$GNGGA,090656.40,2910.10365759,N,11952.95350094,E,1,28,0.7,54.6936,M,8.3456,M,,*79
$GNTHS,78.5529,A*2D
$GNGGA,090656.50,2910.10373295,N,11952.95345209,E,1,28,0.7,54.6836,M,8.3456,M,,*79
$GNTHS,76.4403,A*2B
$GNGGA,090656.60,2910.10380314,N,11952.95339789,E,1,28,0.7,54.6733,M,8.3456,M,,*72
$GNTHS,74.2621,A*2D
$GNGGA,090656.70,2910.10386534,N,11952.95333933,E,1,28,0.7,54.6647,M,8.3456,M,,*76
$GNTHS,72.0263,A*2B
$GNGGA,090656.80,2910.10391571,N,11952.95328526,E,1,28,0.7,54.6742,M,8.3456,M,,*78
$GNTHS,69.9094,A*22
$GNGGA,090656.90,2910.10396821,N,11952.95323022,E,1,28,0.7,54.6946,M,8.3456,M,,*76
$GNTHS,68.2186,A*2A
$GNGGA,090657.00,2910.10403852,N,11952.95316887,E,1,28,0.7,54.6987,M,8.3456,M,,*7D
$GNRMC,090657.00,A,2910.10403852,N,11952.95316887,E,3.186,321.8,260126,5.7,W,A,C*5E
$GNTHS,66.9667,A*27
$GNGGA,090657.10,2910.10412753,N,11952.95311174,E,1,28,0.7,54.6941,M,8.3456,M,,*7A
$GNTHS,65.9975,A*28
$GNGGA,090657.20,2910.10423096,N,11952.95305853,E,1,28,0.7,54.6865,M,8.3456,M,,*7B
$GNTHS,65.5498,A*2A
$GNGGA,090657.30,2910.10434209,N,11952.95300478,E,1,28,0.7,54.6806,M,8.3456,M,,*7D
$GNTHS,65.5165,A*2D
$GNGGA,090657.40,2910.10445876,N,11952.95295034,E,1,28,0.7,54.6770,M,8.3455,M,,*72
$GNTHS,65.5448,A*27
$GNGGA,090657.50,2910.10457339,N,11952.95289494,E,1,28,0.7,54.6744,M,8.3455,M,,*74
$GNTHS,65.5496,A*24
$GNGGA,090657.60,2910.10467115,N,11952.95283855,E,1,28,0.7,54.6787,M,8.3455,M,,*7C
$GNTHS,65.1269,A*26
$GNGGA,090657.70,2910.10474827,N,11952.95278279,E,1,28,0.7,54.6851,M,8.3455,M,,*73
$GNTHS,64.4890,A*2E
$GNGGA,090657.80,2910.10481741,N,11952.95272921,E,1,28,0.7,54.6912,M,8.3455,M,,*73
$GNTHS,63.9385,A*2B
$GNGGA,090657.90,2910.10489208,N,11952.95267399,E,1,28,0.7,54.6943,M,8.3455,M,,*7B
$GNTHS,63.3808,A*2F
$GNGGA,090658.00,2910.10497044,N,11952.95261529,E,1,28,0.7,54.6909,M,8.3455,M,,*7D
$GNRMC,090658.00,A,2910.10497044,N,11952.95261529,E,3.376,326.3,260126,5.7,W,A,C*5A
$GNTHS,62.4243,A*2C
$GNGGA,090658.10,2910.10504820,N,11952.95254967,E,1,28,0.7,54.6847,M,8.3455,M,,*76
$GNTHS,61.3111,A*2C
$GNGGA,090658.20,2910.10512172,N,11952.95248290,E,1,28,0.7,54.6774,M,8.3455,M,,*7D
$GNTHS,59.9884,A*28
$GNGGA,090658.30,2910.10518666,N,11952.95241893,E,1,28,0.7,54.6751,M,8.3455,M,,*73
$GNTHS,58.7738,A*2F
$GNGGA,090658.40,2910.10524825,N,11952.95235019,E,1,28,0.7,54.6768,M,8.3455,M,,*71
$GNTHS,57.5261,A*2B
$GNGGA,090658.50,2910.10530019,N,11952.95228428,E,1,28,0.7,54.6884,M,8.3455,M,,*75
$GNTHS,56.1862,A*27
$GNGGA,090658.60,2910.10534386,N,11952.95222142,E,1,28,0.7,54.7005,M,8.3455,M,,*74
$GNTHS,54.3407,A*28
$GNGGA,090658.70,2910.10537251,N,11952.95214991,E,1,28,0.7,54.6859,M,8.3455,M,,*7E
$GNTHS,51.6450,A*2A
$GNGGA,090658.80,2910.10537113,N,11952.95208334,E,1,28,0.7,54.6712,M,8.3455,M,,*7C
$GNTHS,47.6909,A*2C
$GNGGA,090658.90,2910.10534161,N,11952.95203235,E,1,28,0.7,54.6790,M,8.3455,M,,*7A
$GNTHS,43.1896,A*28
$GNGGA,090659.00,2910.10530400,N,11952.95198309,E,1,28,0.7,54.6947,M,8.3455,M,,*7F
$GNRMC,090659.00,A,2910.10530400,N,11952.95198309,E,2.129,227.0,260126,5.7,W,A,C*58
$GNTHS,38.8909,A*2A
$GNGGA,090659.10,2910.10527512,N,11952.95191877,E,1,28,0.7,54.6979,M,8.3455,M,,*7C
$GNTHS,34.8147,A*24
$GNGGA,090659.20,2910.10525331,N,11952.95182924,E,1,28,0.7,54.6655,M,8.3455,M,,*7E
$GNTHS,30.9229,A*2A
$GNGGA,090659.30,2910.10524512,N,11952.95174438,E,1,28,0.7,54.6307,M,8.3455,M,,*72
$GNTHS,27.4889,A*21
$GNGGA,090659.40,2910.10524831,N,11952.95169710,E,1,28,0.7,54.6380,M,8.3455,M,,*73
$GNTHS,24.8588,A*22
$GNGGA,090659.50,2910.10525452,N,11952.95167298,E,1,28,0.7,54.6698,M,8.3455,M,,*7D
$GNTHS,23.1791,A*26
$GNGGA,090659.60,2910.10525978,N,11952.95163642,E,1,28,0.7,54.6786,M,8.3455,M,,*72
$GNTHS,22.3787,A*22
$GNGGA,090659.70,2910.10527224,N,11952.95157961,E,1,28,0.7,54.6651,M,8.3455,M,,*71
$GNTHS,22.1498,A*2D
$GNGGA,090659.80,2910.10529055,N,11952.95152438,E,1,28,0.7,54.6643,M,8.3455,M,,*73
$GNTHS,21.7117,A*2A
$GNGGA,090659.90,2910.10530457,N,11952.95146771,E,1,28,0.7,54.6706,M,8.3455,M,,*77
$GNTHS,21.0079,A*24
$GNGGA,090700.00,2910.10530918,N,11952.95139465,E,1,28,0.7,54.6622,M,8.3455,M,,*7C
$GNRMC,090700.00,A,2910.10530918,N,11952.95139465,E,2.289,274.2,260126,5.7,W,A,C*5A
$GNTHS,20.1114,A*2E
$GNGGA,090700.10,2910.10531010,N,11952.95132343,E,1,28,0.7,54.6593,M,8.3455,M,,*7C
$GNTHS,18.6533,A*23
$GNGGA,090700.20,2910.10529801,N,11952.95126081,E,1,28,0.7,54.6574,M,8.3455,M,,*7F
$GNTHS,16.0909,A*2E
$GNGGA,090700.30,2910.10525914,N,11952.95120825,E,1,28,0.7,54.6406,M,8.3455,M,,*73
$GNTHS,12.4593,A*21
$GNGGA,090700.40,2910.10520757,N,11952.95117864,E,1,28,0.7,54.6361,M,8.3455,M,,*7F
$GNTHS,8.2500,A*16
$GNGGA,090700.50,2910.10516036,N,11952.95116759,E,1,28,0.7,54.6592,M,8.3455,M,,*71
$GNTHS,4.4681,A*16
$GNGGA,090700.60,2910.10511544,N,11952.95113829,E,1,28,0.7,54.6702,M,8.3455,M,,*73
$GNTHS,1.2656,A*1F
$GNGGA,090700.70,2910.10507478,N,11952.95108475,E,1,28,0.7,54.6611,M,8.3454,M,,*76
$GNTHS,358.1292,A*1F
$GNGGA,090700.80,2910.10504341,N,11952.95102286,E,1,28,0.7,54.6512,M,8.3454,M,,*77
$GNTHS,355.4510,A*1A
$GNGGA,090700.90,2910.10501836,N,11952.95096455,E,1,28,0.7,54.6443,M,8.3454,M,,*79
$GNTHS,353.3087,A*10
$GNGGA,090701.00,2910.10500495,N,11952.95091240,E,1,28,0.7,54.6526,M,8.3454,M,,*72
$GNRMC,090701.00,A,2910.10500495,N,11952.95091240,E,1.723,252.3,260126,5.7,W,A,C*51
$GNTHS,352.3710,A*18
$GNGGA,090701.10,2910.10500133,N,11952.95086087,E,1,28,0.7,54.6671,M,8.3454,M,,*74
$GNTHS,352.0323,A*1F
$GNGGA,090701.20,2910.10500029,N,11952.95080573,E,1,28,0.7,54.6768,M,8.3454,M,,*7C
$GNTHS,351.9195,A*1A
$GNGGA,090701.30,2910.10499370,N,11952.95075323,E,1,28,0.7,54.6880,M,8.3454,M,,*73
$GNTHS,351.3065,A*1E
$GNGGA,090701.40,2910.10497426,N,11952.95070293,E,1,28,0.7,54.7013,M,8.3454,M,,*72
$GNTHS,350.5683,A*17
$GNGGA,090701.50,2910.10494571,N,11952.95064858,E,1,28,0.7,54.7112,M,8.3454,M,,*7B
$GNTHS,349.6909,A*11
$GNGGA,090701.60,2910.10491331,N,11952.95058560,E,1,28,0.7,54.7126,M,8.3454,M,,*71
$GNTHS,348.8305,A*18
$GNGGA,090701.70,2910.10488679,N,11952.95051396,E,1,28,0.7,54.7128,M,8.3454,M,,*79
$GNTHS,347.9081,A*19
$GNGGA,090701.80,2910.10486504,N,11952.95043455,E,1,28,0.7,54.7172,M,8.3454,M,,*75
$GNTHS,347.0982,A*1A
$GNGGA,090701.90,2910.10484015,N,11952.95034695,E,1,28,0.7,54.7293,M,8.3454,M,,*71
$GNTHS,346.3556,A*1D
$GNGGA,090702.00,2910.10480630,N,11952.95024811,E,1,28,0.7,54.7412,M,8.3454,M,,*72
$GNRMC,090702.00,A,2910.10480630,N,11952.95024811,E,3.360,248.6,260126,5.7,W,A,C*59
$GNTHS,345.6578,A*17
$GNGGA,090702.10,2910.10476398,N,11952.95012596,E,1,28,0.7,54.7281,M,8.3454,M,,*76
$GNTHS,345.0104,A*1E
$GNGGA,090702.20,2910.10472002,N,11952.94998852,E,1,28,0.7,54.7018,M,8.3454,M,,*7C
$GNTHS,344.6295,A*12
$GNGGA,090702.30,2910.10468531,N,11952.94984564,E,1,28,0.7,54.6855,M,8.3454,M,,*76
$GNTHS,344.4808,A*1E
$GNGGA,090702.40,2910.10465975,N,11952.94970694,E,1,28,0.7,54.6884,M,8.3453,M,,*7C
$GNTHS,344.6349,A*12
$GNGGA,090702.50,2910.10463725,N,11952.94957203,E,1,28,0.7,54.6995,M,8.3453,M,,*7E
$GNTHS,344.6068,A*12
$GNGGA,090702.60,2910.10461141,N,11952.94943901,E,1,28,0.7,54.7026,M,8.3453,M,,*77
$GNTHS,344.4577,A*1B
$GNGGA,090702.70,2910.10457899,N,11952.94930600,E,1,28,0.7,54.6959,M,8.3453,M,,*75
$GNTHS,344.3949,A*1D
$GNGGA,090702.80,2910.10453580,N,11952.94918789,E,1,28,0.7,54.7048,M,8.3453,M,,*79
$GNTHS,344.1674,A*1E
$GNGGA,090702.90,2910.10449888,N,11952.94907565,E,1,28,0.7,54.7312,M,8.3453,M,,*74
$GNTHS,343.8658,A*1E
$GNGGA,090703.00,2910.10446487,N,11952.94894567,E,1,28,0.7,54.7278,M,8.3453,M,,*74
$GNRMC,090703.00,A,2910.10446487,N,11952.94894567,E,4.296,253.2,260126,5.7,W,A,C*53
$GNTHS,343.8235,A*11
$GNGGA,090703.10,2910.10442499,N,11952.94879551,E,1,28,0.7,54.6927,M,8.3453,M,,*78
$GNTHS,344.0672,A*19
$GNGGA,090703.20,2910.10438743,N,11952.94863985,E,1,28,0.7,54.6554,M,8.3453,M,,*74
$GNTHS,344.3755,A*1E
$GNGGA,090703.30,2910.10435748,N,11952.94850093,E,1,28,0.7,54.6529,M,8.3453,M,,*77
$GNTHS,344.4235,A*1A
$GNGGA,090703.40,2910.10433391,N,11952.94837942,E,1,28,0.7,54.6848,M,8.3453,M,,*78
$GNTHS,344.5844,A*17
$GNGGA,090703.50,2910.10430710,N,11952.94825840,E,1,28,0.7,54.7020,M,8.3453,M,,*70
$GNTHS,344.5724,A*1E
$GNGGA,090703.60,2910.10427331,N,11952.94813011,E,1,28,0.7,54.7033,M,8.3453,M,,*79
$GNTHS,344.5931,A*14
$GNGGA,090703.70,2910.10423968,N,11952.94800953,E,1,28,0.7,54.7192,M,8.3453,M,,*7D
$GNTHS,344.8585,A*1A
$GNGGA,090703.80,2910.10420946,N,11952.94788578,E,1,28,0.7,54.7345,M,8.3452,M,,*7E
$GNTHS,344.9193,A*18
$GNGGA,090703.90,2910.10417840,N,11952.94773822,E,1,28,0.7,54.7107,M,8.3452,M,,*7E
$GNTHS,345.0678,A*12
$GNGGA,090704.00,2910.10414810,N,11952.94757939,E,1,28,0.7,54.6851,M,8.3452,M,,*70
$GNRMC,090704.00,A,2910.10414810,N,11952.94757939,E,5.147,257.7,260126,5.7,W,A,C*59
$GNTHS,344.9728,A*1E
$GNGGA,090704.10,2910.10411490,N,11952.94744116,E,1,28,0.7,54.6796,M,8.3452,M,,*73
$GNTHS,344.9605,A*10
$GNGGA,090704.20,2910.10408069,N,11952.94732365,E,1,28,0.7,54.6994,M,8.3452,M,,*71
$GNTHS,345.0218,A*10
$GNGGA,090704.30,2910.10404552,N,11952.94720239,E,1,28,0.7,54.7157,M,8.3452,M,,*7C
$GNTHS,344.9633,A*15
$GNGGA,090704.40,2910.10401426,N,11952.94707866,E,1,28,0.7,54.7310,M,8.3452,M,,*78
$GNTHS,344.8919,A*13
$GNGGA,090704.50,2910.10398190,N,11952.94695443,E,1,28,0.7,54.7298,M,8.3452,M,,*76
$GNTHS,344.6052,A*1B
$GNGGA,090704.60,2910.10393884,N,11952.94683040,E,1,28,0.7,54.7058,M,8.3452,M,,*7C
$GNTHS,344.1090,A*12
$GNGGA,090704.70,2910.10388550,N,11952.94671404,E,1,28,0.7,54.6722,M,8.3452,M,,*71
$GNTHS,343.2302,A*1E
$GNGGA,090704.80,2910.10383760,N,11952.94660286,E,1,28,0.7,54.6512,M,8.3452,M,,*79
$GNTHS,342.0939,A*1F
$GNGGA,090704.90,2910.10379370,N,11952.94650727,E,1,28,0.7,54.6504,M,8.3452,M,,*72
$GNTHS,340.5802,A*11
$GNGGA,090705.00,2910.10375132,N,11952.94641802,E,1,28,0.7,54.6614,M,8.3452,M,,*78
$GNRMC,090705.00,A,2910.10375132,N,11952.94641802,E,3.193,241.1,260126,5.7,W,A,C*50
$GNTHS,339.3694,A*18
$GNGGA,090705.10,2910.10370789,N,11952.94632772,E,1,28,0.7,54.6729,M,8.3452,M,,*79
$GNTHS,338.5958,A*10
$GNGGA,090705.20,2910.10367218,N,11952.94623650,E,1,28,0.7,54.6856,M,8.3452,M,,*77
$GNTHS,337.8214,A*11
$GNGGA,090705.30,2910.10363937,N,11952.94615429,E,1,28,0.7,54.6891,M,8.3452,M,,*76
$GNTHS,337.4120,A*19
$GNGGA,090705.40,2910.10361099,N,11952.94608098,E,1,28,0.7,54.6828,M,8.3451,M,,*7D
$GNTHS,337.1237,A*19
$GNGGA,090705.50,2910.10358482,N,11952.94600946,E,1,28,0.7,54.6659,M,8.3451,M,,*72
$GNTHS,336.9865,A*1D
$GNGGA,090705.60,2910.10356167,N,11952.94592807,E,1,28,0.7,54.6329,M,8.3451,M,,*7F
$GNTHS,337.0761,A*1E
$GNGGA,090705.70,2910.10354769,N,11952.94585473,E,1,28,0.7,54.6134,M,8.3451,M,,*73
$GNTHS,337.0119,A*17
$GNGGA,090705.80,2910.10353162,N,11952.94581969,E,1,28,0.7,54.6197,M,8.3451,M,,*7D
$GNTHS,336.8195,A*1A
$GNGGA,090705.90,2910.10351846,N,11952.94581453,E,1,28,0.7,54.6524,M,8.3451,M,,*79
$GNTHS,336.8785,A*1D
$GNGGA,090706.00,2910.10350762,N,11952.94580022,E,1,28,0.7,54.6663,M,8.3451,M,,*78
$GNRMC,090706.00,A,2910.10350762,N,11952.94580022,E,0.510,226.0,260126,5.7,W,A,C*5F
$GNTHS,336.8583,A*19
$GNGGA,090706.10,2910.10350174,N,11952.94577484,E,1,28,0.7,54.6617,M,8.3451,M,,*7B
$GNTHS,336.7674,A*1D
$GNGGA,090706.20,2910.10350241,N,11952.94576394,E,1,28,0.7,54.6610,M,8.3451,M,,*7D
$GNTHS,336.7612,A*1D
$GNGGA,090706.30,2910.10350439,N,11952.94576566,E,1,28,0.7,54.6603,M,8.3451,M,,*7C
$GNTHS,336.5839,A*18
$GNGGA,090706.40,2910.10350457,N,11952.94577395,E,1,28,0.7,54.6595,M,8.3451,M,,*74
$GNTHS,336.5429,A*15
$GNGGA,090706.50,2910.10350521,N,11952.94578219,E,1,28,0.7,54.6543,M,8.3451,M,,*74
$GNTHS,336.7782,A*15
$GNGGA,090706.60,2910.10350945,N,11952.94579247,E,1,28,0.7,54.6429,M,8.3451,M,,*7E
$GNTHS,336.8555,A*12
$GNGGA,090706.70,2910.10351847,N,11952.94582237,E,1,28,0.7,54.6332,M,8.3451,M,,*73
$GNTHS,336.7840,A*14
$GNGGA,090706.80,2910.10353517,N,11952.94586844,E,1,28,0.7,54.6350,M,8.3451,M,,*78
$GNTHS,336.8421,A*10
$GNGGA,090706.90,2910.10356037,N,11952.94591816,E,1,28,0.7,54.6442,M,8.3451,M,,*7E
$GNTHS,337.0086,A*10
$GNGGA,090707.00,2910.10358507,N,11952.94596582,E,1,28,0.7,54.6631,M,8.3451,M,,*7F
$GNRMC,090707.00,A,2910.10358507,N,11952.94596582,E,1.861,59.3,260126,5.7,W,A,C*6C
$GNTHS,337.0524,A*1D
$GNGGA,090707.10,2910.10358934,N,11952.94600003,E,1,28,0.7,54.6801,M,8.3451,M,,*7F
$GNTHS,337.0717,A*1F
$GNGGA,090707.20,2910.10358224,N,11952.94601327,E,1,28,0.7,54.6779,M,8.3451,M,,*72
$GNTHS,336.8863,A*1A
$GNGGA,090707.30,2910.10357760,N,11952.94600650,E,1,28,0.7,54.6616,M,8.3451,M,,*75
$GNTHS,336.7802,A*12
$GNGGA,090707.40,2910.10357974,N,11952.94599453,E,1,28,0.7,54.6460,M,8.3451,M,,*78
$GNTHS,336.7882,A*1A
$GNGGA,090707.50,2910.10358255,N,11952.94599262,E,1,28,0.7,54.6466,M,8.3451,M,,*7C
$GNTHS,336.7423,A*1D
$GNGGA,090707.60,2910.10358347,N,11952.94599749,E,1,28,0.7,54.6565,M,8.3451,M,,*73
$GNTHS,336.7829,A*1B
$GNGGA,090707.70,2910.10358268,N,11952.94599879,E,1,28,0.7,54.6638,M,8.3451,M,,*79
$GNTHS,336.7624,A*18
$GNGGA,090707.80,2910.10358117,N,11952.94599457,E,1,28,0.7,54.6630,M,8.3451,M,,*75
$GNTHS,336.7898,A*11
$GNGGA,090707.90,2910.10358024,N,11952.94599043,E,1,28,0.7,54.6593,M,8.3451,M,,*7E
$GNTHS,336.7739,A*15
$GNGGA,090708.00,2910.10357993,N,11952.94599083,E,1,28,0.7,54.6572,M,8.3451,M,,*71
$GNRMC,090708.00,A,2910.10357993,N,11952.94599083,E,0.033,94.7,260126,5.7,W,A,C*6D
$GNTHS,336.7924,A*17
$GNGGA,090708.10,2910.10357975,N,11952.94599224,E,1,28,0.7,54.6602,M,8.3451,M,,*73
$GNTHS,336.7685,A*13
$GNGGA,090708.20,2910.10357996,N,11952.94599208,E,1,28,0.7,54.6630,M,8.3451,M,,*72
$GNTHS,336.8057,A*15
$GNGGA,090708.30,2910.10357988,N,11952.94599095,E,1,28,0.7,54.6649,M,8.3451,M,,*74
$GNTHS,336.7469,A*13
$GNGGA,090708.40,2910.10357976,N,11952.94598997,E,1,28,0.7,54.6655,M,8.3451,M,,*75
$GNTHS,336.8238,A*1E
$GNGGA,090708.50,2910.10357948,N,11952.94598930,E,1,28,0.7,54.6661,M,8.3451,M,,*73
$GNTHS,336.7545,A*1C
$GNGGA,090708.60,2910.10357922,N,11952.94598863,E,1,28,0.7,54.6665,M,8.3451,M,,*7F
$GNTHS