$GNGGA,090415.70,2910.10136826,N,11952.94757264,E,1,28,0.7,55.3321,M,8.3453,M,,*7E
$GNTHS,337.8556,A*10
$GNGGA,090415.80,2910.10136826,N,11952.94757307,E,1,28,0.7,55.3301,M,8.3453,M,,*77
$GNTHS,337.8260,A*12
$GNGGA,090415.90,2910.10136824,N,11952.94757350,E,1,28,0.7,55.3282,M,8.3453,M,,*7C
$GNTHS,337.8622,A*10
$GNGGA,090416.00,2910.10136820,N,11952.94757394,E,1,28,0.7,55.3262,M,8.3453,M,,*74
$GNRMC,090416.00,A,2910.10136820,N,11952.94757394,E,0.006,79.2,260126,5.7,W,A,C*68
$GNTHS,337.8340,A*11
$GNGGA,090416.10,2910.10136815,N,11952.94757440,E,1,28,0.7,55.3242,M,8.3453,M,,*7F
$GNTHS,337.8220,A*16
$GNGGA,090416.20,2910.10136810,N,11952.94757485,E,1,28,0.7,55.3223,M,8.3453,M,,*77
$GNTHS,337.8559,A*1F
$GNGGA,090416.30,2910.10136806,N,11952.94757530,E,1,28,0.7,55.3203,M,8.3453,M,,*7C
$GNTHS,337.7343,A*1D
$GNGGA,090416.40,2910.10136804,N,11952.94757574,E,1,28,0.7,55.3183,M,8.3453,M,,*72
$GNTHS,337.8626,A*14
$GNGGA,090416.50,2910.10136797,N,11952.94757620,E,1,28,0.7,55.3163,M,8.3453,M,,*7A
$GNTHS,337.9647,A*12
$GNGGA,090416.60,2910.10136790,N,11952.94757684,E,1,28,0.7,55.3143,M,8.3453,M,,*72
$GNTHS,337.8625,A*17
$GNGGA,090416.70,2910.10136793,N,11952.94757746,E,1,28,0.7,55.3121,M,8.3453,M,,*7B
$GNTHS,337.8227,A*11
$GNGGA,090416.80,2910.10136789,N,11952.94757807,E,1,28,0.7,55.3101,M,8.3453,M,,*77
$GNTHS,337.7239,A*11
$GNGGA,090416.90,2910.10136784,N,11952.94757866,E,1,28,0.7,55.3081,M,8.3453,M,,*75
$GNTHS,337.7533,A*1C
$GNGGA,090417.00,2910.10136789,N,11952.94757923,E,1,28,0.7,55.3059,M,8.3453,M,,*75
$GNRMC,090417.00,A,2910.10136789,N,11952.94757923,E,0.007,103.3,260126,5.7,W,A,C*5F
$GNTHS,337.8941,A*1A
$GNGGA,090417.10,2910.10136784,N,11952.94757984,E,1,28,0.7,55.3040,M,8.3453,M,,*7C
$GNTHS,337.8354,A*14
$GNGGA,090417.20,2910.10136791,N,11952.94758041,E,1,28,0.7,55.3018,M,8.3453,M,,*79
$GNTHS,337.8531,A*11
$GNGGA,090417.30,2910.10136798,N,11952.94758097,E,1,28,0.7,55.2996,M,8.3453,M,,*74
$GNTHS,337.7849,A*1C
$GNGGA,090417.40,2910.10136804,N,11952.94758155,E,1,28,0.7,55.2974,M,8.3453,M,,*7A
$GNTHS,337.9387,A*1B
$GNGGA,090417.50,2910.10136812,N,11952.94758209,E,1,28,0.7,55.2952,M,8.3453,M,,*72
$GNTHS,337.8059,A*1A
$GNGGA,090417.60,2910.10136821,N,11952.94758263,E,1,28,0.7,55.2931,M,8.3453,M,,*78
$GNTHS,337.7959,A*1C
$GNGGA,090417.70,2910.10136829,N,11952.94758317,E,1,28,0.7,55.2910,M,8.3453,M,,*70
$GNTHS,337.8138,A*1C
$GNGGA,090417.80,2910.10136838,N,11952.94758371,E,1,28,0.7,55.2889,M,8.3453,M,,*7E
$GNTHS,337.8560,A*15
$GNGGA,090417.90,2910.10136844,N,11952.94758427,E,1,28,0.7,55.2867,M,8.3453,M,,*70
$GNTHS,337.7936,A*15
$GNGGA,090418.00,2910.10136850,N,11952.94758482,E,1,28,0.7,55.2846,M,8.3453,M,,*7F
$GNRMC,090418.00,A,2910.10136850,N,11952.94758482,E,0.008,95.3,260126,5.7,W,A,C*63
$GNTHS,337.7977,A*10
$GNGGA,090418.10,2910.10136857,N,11952.94758537,E,1,28,0.7,55.2825,M,8.3453,M,,*73
$GNTHS,337.8355,A*15
$GNGGA,090418.20,2910.10136864,N,11952.94758592,E,1,28,0.7,55.2804,M,8.3453,M,,*7C
$GNTHS,337.8006,A*10
$GNGGA,090418.30,2910.10136872,N,11952.94758645,E,1,28,0.7,55.2783,M,8.3453,M,,*73
$GNTHS,337.8125,A*10
$GNGGA,090418.40,2910.10136879,N,11952.94758697,E,1,28,0.7,55.2763,M,8.3453,M,,*7E
$GNTHS,337.8322,A*15
$GNGGA,090418.50,2910.10136887,N,11952.94758747,E,1,28,0.7,55.2742,M,8.3453,M,,*71
$GNTHS,337.8417,A*14
$GNGGA,090418.60,2910.10136894,N,11952.94758797,E,1,28,0.7,55.2722,M,8.3453,M,,*7B
$GNTHS,337.8088,A*16
$GNGGA,090418.70,2910.10136900,N,11952.94758847,E,1,28,0.7,55.2701,M,8.3453,M,,*75
$GNTHS,337.7793,A*14
$GNGGA,090418.80,2910.10136907,N,11952.94758895,E,1,28,0.7,55.2680,M,8.3453,M,,*7A
$GNTHS,337.8187,A*18
$GNGGA,090418.90,2910.10136913,N,11952.94758943,E,1,28,0.7,55.2660,M,8.3453,M,,*7A
$GNTHS,337.7171,A*1E
$GNGGA,090419.00,2910.10136919,N,11952.94758991,E,1,28,0.7,55.2639,M,8.3453,M,,*7B
$GNRMC,090419.00,A,2910.10136919,N,11952.94758991,E,0.006,97.1,260126,5.7,W,A,C*6F
$GNTHS,337.8236,A*11
$GNGGA,090419.10,2910.10136926,N,11952.94759037,E,1,28,0.7,55.2619,M,8.3453,M,,*70
$GNTHS,337.8270,A*13
$GNGGA,090419.20,2910.10136933,N,11952.94759083,E,1,28,0.7,55.2598,M,8.3453,M,,*72
$GNTHS,337.7423,A*1C
$GNGGA,090419.30,2910.10136942,N,11952.94759126,E,1,28,0.7,55.2578,M,8.3453,M,,*75
$GNTHS,337.7266,A*1B
$GNGGA,090419.40,2910.10136950,N,11952.94759171,E,1,28,0.7,55.2558,M,8.3453,M,,*71
$GNTHS,337.8586,A*1D
$GNGGA,090419.50,2910.10136957,N,11952.94759216,E,1,28,0.7,55.2537,M,8.3453,M,,*7C
$GNTHS,337.8059,A*1A
$GNGGA,090419.60,2910.10136964,N,11952.94759259,E,1,28,0.7,55.2517,M,8.3453,M,,*76
$GNTHS,337.8329,A*1E
$GNGGA,090419.70,2910.10136970,N,11952.94759302,E,1,28,0.7,55.2497,M,8.3453,M,,*74
$GNTHS,337.8236,A*11
$GNGGA,090419.80,2910.10136978,N,11952.94759342,E,1,28,0.7,55.2478,M,8.3453,M,,*76
$GNTHS,337.8002,A*14
$GNGGA,090419.90,2910.10136987,N,11952.94759384,E,1,28,0.7,55.2459,M,8.3453,M,,*7E
$GNTHS,337.7952,A*17
$GNGGA,090420.00,2910.10136996,N,11952.94759426,E,1,28,0.7,55.2439,M,8.3453,M,,*74
$GNRMC,090420.00,A,2910.10136996,N,11952.94759426,E,0.004,71.4,260126,5.7,W,A,C*6D
$GNTHS,337.8538,A*18
$GNGGA,090420.10,2910.10137004,N,11952.94759467,E,1,28,0.7,55.2419,M,8.3453,M,,*71
$GNTHS,337.8924,A*19
$GNGGA,090420.20,2910.10137011,N,11952.94759511,E,1,28,0.7,55.2400,M,8.3453,M,,*7E
$GNTHS,337.8385,A*18
$GNGGA,090420.30,2910.10137019,N,11952.94759555,E,1,28,0.7,55.2381,M,8.3453,M,,*79
$GNTHS,337.8210,A*15
$GNGGA,090420.40,2910.10137028,N,11952.94759598,E,1,28,0.7,55.2362,M,8.3453,M,,*70
$GNTHS,337.8517,A*15
$GNGGA,090420.50,2910.10137035,N,11952.94759642,E,1,28,0.7,55.2343,M,8.3453,M,,*7A
$GNTHS,337.9039,A*1D
$GNGGA,090420.60,2910.10137044,N,11952.94759686,E,1,28,0.7,55.2324,M,8.3453,M,,*76
$GNTHS,337.8248,A*18
$GNGGA,090420.70,2910.10137052,N,11952.94759728,E,1,28,0.7,55.2306,M,8.3453,M,,*75
$GNTHS,337.8299,A*14
$GNGGA,090420.80,2910.10137059,N,11952.94759770,E,1,28,0.7,55.2287,M,8.3453,M,,*74
$GNTHS,337.8426,A*16
$GNGGA,090420.90,2910.10137066,N,11952.94759812,E,1,28,0.7,55.2268,M,8.3453,M,,*73
$GNTHS,337.9576,A*13
$GNGGA,090421.00,2910.10137073,N,11952.94759855,E,1,28,0.7,55.2249,M,8.3453,M,,*7F
$GNRMC,090421.00,A,2910.10137073,N,11952.94759855,E,0.006,85.8,260126,5.7,W,A,C*62
$GNTHS,337.8152,A*10
$GNGGA,090421.10,2910.10137082,N,11952.94759896,E,1,28,0.7,55.2230,M,8.3453,M,,*71
$GNTHS,337.8763,A*14
$GNGGA,090421.20,2910.10137098,N,11952.94759920,E,1,28,0.7,55.2209,M,8.3453,M,,*7F
$GNTHS,337.8212,A*17
$GNGGA,090421.30,2910.10137106,N,11952.94759962,E,1,28,0.7,55.2190,M,8.3453,M,,*7D
$GNTHS,337.8116,A*10
$GNGGA,090421.40,2910.10137121,N,11952.94759986,E,1,28,0.7,55.2169,M,8.3453,M,,*73
$GNTHS,337.8263,A*11
$GNGGA,090421.50,2910.10137135,N,11952.94760011,E,1,28,0.7,55.2147,M,8.3453,M,,*76
$GNTHS,337.8470,A*15
$GNGGA,090421.60,2910.10137139,N,11952.94760052,E,1,28,0.7,55.2128,M,8.3453,M,,*77
$GNTHS,337.8394,A*18
$GNGGA,090421.70,2910.10137143,N,11952.94760092,E,1,28,0.7,55.2109,M,8.3453,M,,*74
$GNTHS,337.7548,A*10
$GNGGA,090421.80,2910.10137156,N,11952.94760116,E,1,28,0.7,55.2088,M,8.3453,M,,*7A
$GNTHS,337.8303,A*16
$GNGGA,090421.90,2910.10137176,N,11952.94760159,E,1,28,0.7,55.2069,M,8.3453,M,,*7D
$GNTHS,337.8900,A*1F
$GNGGA,090422.00,2910.10137195,N,11952.94760203,E,1,28,0.7,55.2049,M,8.3453,M,,*74
$GNRMC,090422.00,A,2910.10137195,N,11952.94760203,E,0.007,107.4,260126,5.7,W,A,C*5D
$GNTHS,337.7470,A*1A
$GNGGA,090422.10,2910.10137214,N,11952.94760246,E,1,28,0.7,55.2029,M,8.3453,M,,*78
$GNTHS,337.8387,A*1A
$GNGGA,090422.20,2910.10137232,N,11952.94760290,E,1,28,0.7,55.2010,M,8.3453,M,,*7E
$GNTHS,337.9009,A*1E
$GNGGA,090422.30,2910.10137249,N,11952.94760333,E,1,28,0.7,55.1991,M,8.3453,M,,*78
$GNTHS,337.8152,A*10
$GNGGA,090422.40,2910.10137267,N,11952.94760375,E,1,28,0.7,55.1971,M,8.3453,M,,*7F
$GNTHS,337.8107,A*10
$GNGGA,090422.50,2910.10137286,N,11952.94760415,E,1,28,0.7,55.1951,M,8.3453,M,,*72
$GNTHS,337.8542,A*15
$GNGGA,090422.60,2910.10137305,N,11952.94760454,E,1,28,0.7,55.1932,M,8.3453,M,,*7B
$GNTHS,337.8291,A*1C
$GNGGA,090422.70,2910.10137325,N,11952.94760494,E,1,28,0.7,55.1913,M,8.3453,M,,*77
$GNTHS,337.8149,A*1A
$GNGGA,090422.80,2910.10137342,N,11952.94760535,E,1,28,0.7,55.1894,M,8.3453,M,,*7D
$GNTHS,337.8373,A*11
$GNGGA,090422.90,2910.10137360,N,11952.94760574,E,1,28,0.7,55.1874,M,8.3453,M,,*77
$GNTHS,337.8054,A*17
$GNGGA,090423.00,2910.10137377,N,11952.94760614,E,1,28,0.7,55.1855,M,8.3453,M,,*7F
$GNRMC,090423.00,A,2910.10137377,N,11952.94760614,E,0.006,115.5,260126,5.7,W,A,C*53
$GNTHS,337.7704,A*1A
$GNGGA,090423.10,2910.10137395,N,11952.94760653,E,1,28,0.7,55.1836,M,8.3453,M,,*74
$GNTHS,337.7953,A*16
$GNGGA,090423.20,2910.10137415,N,11952.94760690,E,1,28,0.7,55.1817,M,8.3453,M,,*74
$GNTHS,337.7961,A*17
$GNGGA,090423.30,2910.10137434,N,11952.94760727,E,1,28,0.7,55.1798,M,8.3453,M,,*73
$GNTHS,337.7962,A*14
$GNGGA,090423.40,2910.10137454,N,11952.94760766,E,1,28,0.7,55.1779,M,8.3453,M,,*78
$GNTHS,337.8121,A*14
$GNGGA,090423.50,2910.10137474,N,11952.94760805,E,1,28,0.7,55.1760,M,8.3453,M,,*79
$GNTHS,337.7872,A*14
$GNGGA,090423.60,2910.10137492,N,11952.94760842,E,1,28,0.7,55.1741,M,8.3453,M,,*72
$GNTHS,337.8178,A*18
$GNGGA,090423.70,2910.10137511,N,11952.94760879,E,1,28,0.7,55.1722,M,8.3453,M,,*74
$GNTHS,337.8332,A*14
$GNGGA,090423.80,2910.10137529,N,11952.94760913,E,1,28,0.7,55.1704,M,8.3453,M,,*79
$GNTHS,337.8448,A*1E
$GNGGA,090423.90,2910.10137547,N,11952.94760948,E,1,28,0.7,55.1686,M,8.3453,M,,*75
$GNTHS,337.8159,A*1B
$GNGGA,090424.00,2910.10137565,N,11952.94760984,E,1,28,0.7,55.1668,M,8.3453,M,,*7B
$GNRMC,090424.00,A,2910.10137565,N,11952.94760984,E,0.004,109.2,260126,5.7,W,A,C*5F
$GNTHS,337.8412,A*11
$GNGGA,090424.10,2910.10137582,N,11952.94761020,E,1,28,0.7,55.1650,M,8.3453,M,,*7E
$GNTHS,337.8213,A*16
$GNGGA,090424.20,2910.10137598,N,11952.94761055,E,1,28,0.7,55.1632,M,8.3453,M,,*70
$GNTHS,337.8618,A*19
$GNGGA,090424.30,2910.10137614,N,11952.94761091,E,1,28,0.7,55.1614,M,8.3453,M,,*7A
$GNTHS,337.8375,A*17
$GNGGA,090424.40,2910.10137626,N,11952.94761129,E,1,28,0.7,55.1596,M,8.3453,M,,*77
$GNTHS,337.7601,A*1E
$GNGGA,090424.50,2910.10137635,N,11952.94761168,E,1,28,0.7,55.1578,M,8.3453,M,,*71
$GNTHS,337.8077,A*16
$GNGGA,090424.60,2910.10137646,N,11952.94761205,E,1,28,0.7,55.1560,M,8.3453,M,,*77
$GNTHS,337.8900,A*1F
$GNGGA,090424.70,2910.10137656,N,11952.94761240,E,1,28,0.7,55.1543,M,8.3453,M,,*77
$GNTHS,337.8017,A*10
$GNGGA,090424.80,2910.10137667,N,11952.94761274,E,1,28,0.7,55.1525,M,8.3453,M,,*7D
$GNTHS,337.9241,A*10
$GNGGA,090424.90,2910.10137678,N,11952.94761308,E,1,28,0.7,55.1507,M,8.3453,M,,*78
$GNTHS,337.8159,A*1B
$GNGGA,090425.00,2910.10137688,N,11952.94761343,E,1,28,0.7,55.1490,M,8.3453,M,,*7F
$GNRMC,090425.00,A,2910.10137688,N,11952.94761343,E,0.007,136.6,260126,5.7,W,A,C*55
$GNTHS,337.8364,A*17
$GNGGA,090425.10,2910.10137700,N,11952.94761378,E,1,28,0.7,55.1473,M,8.3453,M,,*7A
$GNTHS,337.7081,A*10
$GNGGA,090425.20,2910.10137710,N,11952.94761412,E,1,28,0.7,55.1455,M,8.3453,M,,*77
$GNTHS,337.7575,A*1E
$GNGGA,090425.30,2910.10137722,N,11952.94761446,E,1,28,0.7,55.1438,M,8.3453,M,,*7D
$GNTHS,337.8027,A*13
$GNGGA,090425.40,2910.10137735,N,11952.94761479,E,1,28,0.7,55.1421,M,8.3453,M,,*78
$GNTHS,337.7791,A*16
$GNGGA,090425.50,2910.10137737,N,11952.94761527,E,1,28,0.7,55.1407,M,8.3453,M,,*75
$GNTHS,337.7423,A*1C
$GNGGA,090425.60,2910.10137741,N,11952.94761576,E,1,28,0.7,55.1393,M,8.3453,M,,*79
$GNTHS,337.6991,A*19
$GNGGA,090425.70,2910.10137744,N,11952.94761624,E,1,28,0.7,55.1379,M,8.3453,M,,*7D
$GNTHS,337.7928,A*1A
$GNGGA,090425.80,2910.10137747,N,11952.94761673,E,1,28,0.7,55.1365,M,8.3453,M,,*7E
$GNTHS,337.8027,A*13
$GNGGA,090425.90,2910.10137750,N,11952.94761721,E,1,28,0.7,55.1352,M,8.3453,M,,*7B
$GNTHS,337.8477,A*12
$GNGGA,090426.00,2910.10137754,N,11952.94761768,E,1,28,0.7,55.1338,M,8.3453,M,,*74
$GNRMC,090426.00,A,2910.10137754,N,11952.94761768,E,0.007,132.0,260126,5.7,W,A,C*59
$GNTHS,337.8165,A*14
$GNGGA,090426.10,2910.10137758,N,11952.94761815,E,1,28,0.7,55.1325,M,8.3453,M,,*70
$GNTHS,337.8076,A*17
$GNGGA,090426.20,2910.10137762,N,11952.94761861,E,1,28,0.7,55.1311,M,8.3453,M,,*7E
$GNTHS,337.8765,A*12
$GNGGA,090426.30,2910.10137766,N,11952.94761907,E,1,28,0.7,55.1297,M,8.3453,M,,*75
$GNTHS,337.9708,A*18
$GNGGA,090426.40,2910.10137768,N,11952.94761954,E,1,28,0.7,55.1284,M,8.3453,M,,*78
$GNTHS,337.8068,A*18
$GNGGA,090426.50,2910.10137772,N,11952.94762003,E,1,28,0.7,55.1270,M,8.3453,M,,*71
$GNTHS,337.6824,A*16
$GNGGA,090426.60,2910.10137775,N,11952.94762050,E,1,28,0.7,55.1257,M,8.3453,M,,*76
$GNTHS,337.6472,A*19
$GNGGA,090426.70,2910.10137777,N,11952.94762095,E,1,28,0.7,55.1244,M,8.3453,M,,*7E
$GNTHS,337.7065,A*1A
$GNGGA,090426.80,2910.10137779,N,11952.94762137,E,1,28,0.7,55.1231,M,8.3453,M,,*74
$GNTHS,337.7903,A*13
$GNGGA,090426.90,2910.10137782,N,11952.94762179,E,1,28,0.7,55.1218,M,8.3453,M,,*70
$GNTHS,337.8930,A*1C
$GNGGA,090427.00,2910.10137786,N,11952.94762223,E,1,28,0.7,55.1205,M,8.3453,M,,*7C
$GNRMC,090427.00,A,2910.10137786,N,11952.94762223,E,0.007,134.7,260126,5.7,W,A,C*5F
$GNTHS,337.7138,A*13
$GNGGA,090427.10,2910.10137788,N,11952.94762266,E,1,28,0.7,55.1191,M,8.3453,M,,*7C
$GNTHS,337.7587,A*13
$GNGGA,090427.20,2910.10137789,N,11952.94762310,E,1,28,0.7,55.1178,M,8.3453,M,,*79
$GNTHS,337.8211,A*14
$GNGGA,090427.30,2910.10137791,N,11952.94762355,E,1,28,0.7,55.1165,M,8.3453,M,,*7C
$GNTHS,337.8511,A*13
$GNGGA,090427.40,2910.10137794,N,11952.94762396,E,1,28,0.7,55.1152,M,8.3453,M,,*75
$GNTHS,337.7897,A*1F
$GNGGA,090427.50,2910.10137801,N,11952.94762431,E,1,28,0.7,55.1139,M,8.3453,M,,*70
$GNTHS,337.8187,A*18
$GNGGA,090427.60,2910.10137809,N,11952.94762466,E,1,28,0.7,55.1126,M,8.3453,M,,*77
$GNTHS,337.8133,A*17
$GNGGA,090427.70,2910.10137817,N,11952.94762505,E,1,28,0.7,55.1113,M,8.3453,M,,*7B
$GNTHS,337.7922,A*10
$GNGGA,090427.80,2910.10137823,N,11952.94762546,E,1,28,0.7,55.1100,M,8.3453,M,,*76
$GNTHS,337.7933,A*10
$GNGGA,090427.90,2910.10137823,N,11952.94762592,E,1,28,0.7,55.1088,M,8.3453,M,,*7F
$GNTHS,337.7719,A*16
$GNGGA,090428.00,2910.10137827,N,11952.94762632,E,1,28,0.7,55.1075,M,8.3453,M,,*76
$GNRMC,090428.00,A,2910.10137827,N,11952.94762632,E,0.006,128.7,260126,5.7,W,A,C*5C
$GNTHS,337.7784,A*12
$GNGGA,090428.10,2910.10137831,N,11952.94762669,E,1,28,0.7,55.1063,M,8.3453,M,,*79
$GNTHS,337.8037,A*12
$GNGGA,090428.20,2910.10137831,N,11952.94762714,E,1,28,0.7,55.1051,M,8.3453,M,,*70
$GNTHS,337.8512,A*10
$GNGGA,090428.30,2910.10137834,N,11952.94762755,E,1,28,0.7,55.1039,M,8.3453,M,,*7F
$GNTHS,337.7879,A*1F
$GNGGA,090428.40,2910.10137839,N,11952.94762795,E,1,28,0.7,55.1026,M,8.3453,M,,*77
$GNTHS,337.8117,A*11
$GNGGA,090428.50,2910.10137841,N,11952.94762839,E,1,28,0.7,55.1014,M,8.3453,M,,*71
$GNTHS,337.7880,A*19
$GNGGA,090428.60,2910.10137846,N,11952.94762881,E,1,28,0.7,55.1003,M,8.3453,M,,*70
$GNTHS,337.8042,A*10
$GNGGA,090428.70,2910.10137848,N,11952.94762924,E,1,28,0.7,55.0991,M,8.3453,M,,*72
$GNTHS,337.7661,A*18
$GNGGA,090428.80,2910.10137852,N,11952.94762965,E,1,28,0.7,55.0979,M,8.3453,M,,*75
$GNTHS,337.7753,A*18
$GNGGA,090428.90,2910.10137855,N,11952.94763005,E,1,28,0.7,55.0967,M,8.3453,M,,*72
$GNTHS,337.7745,A*1F
$GNGGA,090429.00,2910.10137859,N,11952.94763045,E,1,28,0.7,55.0955,M,8.3453,M,,*73
$GNRMC,090429.00,A,2910.10137859,N,11952.94763045,E,0.003,126.8,260126,5.7,W,A,C*57
$GNTHS,337.7768,A*10
$GNGGA,090429.10,2910.10137860,N,11952.94763087,E,1,28,0.7,55.0943,M,8.3453,M,,*71
$GNTHS,337.8082,A*1C
$GNGGA,090429.20,2910.10137863,N,11952.94763127,E,1,28,0.7,55.0932,M,8.3453,M,,*7C
$GNTHS,337.8271,A*12
$GNGGA,090429.30,2910.10137866,N,11952.94763166,E,1,28,0.7,55.0920,M,8.3453,M,,*7E
$GNTHS,337.8077,A*16
$GNGGA,090429.40,2910.10137869,N,11952.94763205,E,1,28,0.7,55.0909,M,8.3453,M,,*7B
$GNTHS,337.7872,A*14
$GNGGA,090429.50,2910.10137874,N,11952.94763242,E,1,28,0.7,55.0898,M,8.3453,M,,*7C
$GNTHS,337.7989,A*11
$GNGGA,090429.60,2910.10137877,N,11952.94763282,E,1,28,0.7,55.0887,M,8.3453,M,,*7E
$GNTHS,337.8167,A*16
$GNGGA,090429.70,2910.10137880,N,11952.94763321,E,1,28,0.7,55.0876,M,8.3453,M,,*71
$GNTHS,337.8114,A*12
$GNGGA,090429.80,2910.10137884,N,11952.94763361,E,1,28,0.7,55.0865,M,8.3453,M,,*7C
$GNTHS,337.7592,A*17
$GNGGA,090429.90,2910.10137889,N,11952.94763399,E,1,28,0.7,55.0854,M,8.3453,M,,*75
$GNTHS,337.7805,A*14
$GNGGA,090430.00,2910.10137889,N,11952.94763438,E,1,28,0.7,55.0843,M,8.3453,M,,*7E
$GNRMC,090430.00,A,2910.10137889,N,11952.94763438,E,0.005,134.4,260126,5.7,W,A,C*55
$GNTHS,337.8430,A*11
$GNGGA,090430.10,2910.10137889,N,11952.94763480,E,1,28,0.7,55.0831,M,8.3453,M,,*79
$GNTHS,337.7581,A*15
$GNGGA,090430.20,2910.10137889,N,11952.94763522,E,1,28,0.7,55.0820,M,8.3453,M,,*73
$GNTHS,337.8718,A*18
$GNGGA,090430.30,2910.10137892,N,11952.94763563,E,1,28,0.7,55.0810,M,8.3453,M,,*7E
$GNTHS,337.7786,A*10
$GNGGA,090430.40,2910.10137895,N,11952.94763599,E,1,28,0.7,55.0799,M,8.3453,M,,*75
$GNTHS,337.8029,A*1D
$GNGGA,090430.50,2910.10137899,N,11952.94763637,E,1,28,0.7,55.0788,M,8.3453,M,,*7F
$GNTHS,337.8022,A*16
$GNGGA,090430.60,2910.10137901,N,11952.94763675,E,1,28,0.7,55.0777,M,8.3453,M,,*7A
$GNTHS,337.8508,A*1B
$GNGGA,090430.70,2910.10137903,N,11952.94763713,E,1,28,0.7,55.0766,M,8.3453,M,,*78
$GNTHS,337.8807,A*19
$GNGGA,090430.80,2910.10137905,N,11952.94763752,E,1,28,0.7,55.0756,M,8.3453,M,,*77
$GNTHS,337.7681,A*16
$GNGGA,090430.90,2910.10137906,N,11952.94763790,E,1,28,0.7,55.0745,M,8.3453,M,,*79
$GNTHS,337.8448,A*1E
$GNGGA,090431.00,2910.10137906,N,11952.94763827,E,1,28,0.7,55.0734,M,8.3453,M,,*74
$GNRMC,090431.00,A,2910.10137906,N,11952.94763827,E,0.005,131.0,260126,5.7,W,A,C*51
$GNTHS,337.9107,A*11
$GNGGA,090431.10,2910.10137907,N,11952.94763864,E,1,28,0.7,55.0723,M,8.3453,M,,*75
$GNTHS,337.8079,A*18
$GNGGA,090431.20,2910.10137908,N,11952.94763900,E,1,28,0.7,55.0712,M,8.3453,M,,*78
$GNTHS,337.9528,A*18
$GNGGA,090431.30,2910.10137910,N,11952.94763938,E,1,28,0.7,55.0701,M,8.3453,M,,*79
$GNTHS,337.6949,A*1C
$GNGGA,090431.40,2910.10137913,N,11952.94763975,E,1,28,0.7,55.0690,M,8.3453,M,,*7D
$GNTHS,337.8182,A*1D
$GNGGA,090431.50,2910.10137916,N,11952.94764010,E,1,28,0.7,55.0679,M,8.3453,M,,*73
$GNTHS,337.7232,A*1A
$GNGGA,090431.60,2910.10137920,N,11952.94764043,E,1,28,0.7,55.0667,M,8.3453,M,,*7C
$GNTHS,337.7700,A*1E
$GNGGA,090431.70,2910.10137923,N,11952.94764076,E,1,28,0.7,55.0656,M,8.3453,M,,*7A
$GNTHS,337.8599,A*13
$GNGGA,090431.80,2910.10137925,N,11952.94764110,E,1,28,0.7,55.0644,M,8.3453,M,,*71
$GNTHS,337.7719,A*16
$GNGGA,090431.90,2910.10137926,N,11952.94764145,E,1,28,0.7,55.0633,M,8.3453,M,,*73
$GNTHS,337.8288,A*14
$GNGGA,090432.00,2910.10137926,N,11952.94764179,E,1,28,0.7,55.0622,M,8.3453,M,,*76
$GNRMC,090432.00,A,2910.10137926,N,11952.94764179,E,0.005,131.4,260126,5.7,W,A,C*51
$GNTHS,337.8838,A*15
$GNGGA,090432.10,2910.10137926,N,11952.94764212,E,1,28,0.7,55.0611,M,8.3453,M,,*79
$GNTHS,337.8207,A*13
$GNGGA,090432.20,2910.10137927,N,11952.94764244,E,1,28,0.7,55.0600,M,8.3453,M,,*78
$GNTHS,337.7020,A*1B
$GNGGA,090432.30,2910.10137927,N,11952.94764278,E,1,28,0.7,55.0588,M,8.3453,M,,*75
$GNTHS,337.7486,A*13
$GNGGA,090432.40,2910.10137926,N,11952.94764312,E,1,28,0.7,55.0578,M,8.3453,M,,*71
$GNTHS,337.6263,A*1F
$GNGGA,090432.50,2910.10137929,N,11952.94764344,E,1,28,0.7,55.0567,M,8.3453,M,,*72
$GNTHS,337.7399,A*1A
$GNGGA,090432.60,2910.10137933,N,11952.94764372,E,1,28,0.7,55.0556,M,8.3453,M,,*7D
$GNTHS,337.7924,A*16
$GNGGA,090432.70,2910.10137939,N,11952.94764398,E,1,28,0.7,55.0545,M,8.3453,M,,*70
$GNTHS,337.7737,A*1A
$GNGGA,090432.80,2910.10137941,N,11952.94764430,E,1,28,0.7,55.0534,M,8.3453,M,,*73
$GNTHS,337.7820,A*13
$GNGGA,090432.90,2910.10137941,N,11952.94764465,E,1,28,0.7,55.0523,M,8.3453,M,,*74
$GNTHS,337.7940,A*14
$GNGGA,090433.00,2910.10137942,N,11952.94764500,E,1,28,0.7,55.0512,M,8.3453,M,,*7F
$GNRMC,090433.00,A,2910.10137942,N,11952.94764500,E,0.006,115.1,260126,5.7,W,A,C*58
$GNTHS,337.7968,A*1E
$GNGGA,090433.10,2910.10137944,N,11952.94764531,E,1,28,0.7,55.0502,M,8.3453,M,,*7B
$GNTHS,337.8039,A*1C
$GNGGA,090433.20,2910.10137948,N,11952.94764562,E,1,28,0.7,55.0491,M,8.3453,M,,*79
$GNTHS,337.8270,A*13
$GNGGA,090433.30,2910.10137947,N,11952.94764597,E,1,28,0.7,55.0480,M,8.3453,M,,*7D
$GNTHS,337.8444,A*12
$GNGGA,090433.40,2910.10137946,N,11952.94764632,E,1,28,0.7,55.0469,M,8.3453,M,,*70
$GNTHS,337.7458,A*10
$GNGGA,090433.50,2910.10137952,N,11952.94764661,E,1,28,0.7,55.0458,M,8.3453,M,,*70
$GNTHS,337.7838,A*1A
$GNGGA,090433.60,2910.10137960,N,11952.94764684,E,1,28,0.7,55.0447,M,8.3453,M,,*77
$GNTHS,337.8174,A*14
$GNGGA,090433.70,2910.10137970,N,11952.94764708,E,1,28,0.7,55.0436,M,8.3453,M,,*74
$GNTHS,337.7969,A*1F
$GNGGA,090433.80,2910.10137980,N,11952.94764735,E,1,28,0.7,55.0426,M,8.3453,M,,*7B
$GNTHS,337.7650,A*1A
$GNGGA,090433.90,2910.10137987,N,11952.94764765,E,1,28,0.7,55.0415,M,8.3453,M,,*78
$GNTHS,337.7547,A*1F
$GNGGA,090434.00,2910.10137993,N,11952.94764794,E,1,28,0.7,55.0405,M,8.3453,M,,*7C
$GNRMC,090434.00,A,2910.10137993,N,11952.94764794,E,0.004,81.4,260126,5.7,W,A,C*67
$GNTHS,337.8877,A*1E
$GNGGA,090434.10,2910.10137997,N,11952.94764823,E,1,28,0.7,55.0394,M,8.3453,M,,*75
$GNTHS,337.8112,A*14
$GNGGA,090434.20,2910.10138002,N,11952.94764855,E,1,28,0.7,55.0384,M,8.3453,M,,*7C
$GNTHS,337.7203,A*18
$GNGGA,090434.30,2910.10138004,N,11952.94764890,E,1,28,0.7,55.0374,M,8.3453,M,,*7D
$GNTHS,337.8147,A*14
$GNGGA,090434.40,2910.10138004,N,11952.94764924,E,1,28,0.7,55.0364,M,8.3453,M,,*75
$GNTHS,337.8769,A*1E
$GNGGA,090434.50,2910.10138005,N,11952.94764959,E,1,28,0.7,55.0354,M,8.3453,M,,*7C
$GNTHS,337.7678,A*10
$GNGGA,090434.60,2910.10138009,N,11952.94764989,E,1,28,0.7,55.0344,M,8.3453,M,,*7F
$GNTHS,337.8606,A*16
$GNGGA,090434.70,2910.10138010,N,11952.94765020,E,1,28,0.7,55.0334,M,8.3453,M,,*7A
$GNTHS,337.8278,A*1B
$GNGGA,090434.80,2910.10138012,N,11952.94765052,E,1,28,0.7,55.0323,M,8.3453,M,,*74
$GNTHS,337.7252,A*1C
$GNGGA,090434.90,2910.10138014,N,11952.94765081,E,1,28,0.7,55.0313,M,8.3453,M,,*7E
$GNTHS,337.8162,A*13
$GNGGA,090435.00,2910.10138016,N,11952.94765110,E,1,28,0.7,55.0303,M,8.3453,M,,*7C
$GNRMC,090435.00,A,2910.10138016,N,11952.94765110,E,0.005,113.0,260126,5.7,W,A,C*59
$GNTHS,337.8656,A*13
$GNGGA,090435.10,2910.10138018,N,11952.94765139,E,1,28,0.7,55.0292,M,8.3453,M,,*71
$GNTHS,337.8814,A*1B
$GNGGA,090435.20,2910.10138021,N,11952.94765167,E,1,28,0.7,55.0282,M,8.3453,M,,*72
$GNTHS,337.8071,A*10
$GNGGA,090435.30,2910.10138026,N,11952.94765196,E,1,28,0.7,55.0272,M,8.3453,M,,*75
$GNTHS,337.6920,A*13
$GNGGA,090435.40,2910.10138029,N,11952.94765224,E,1,28,0.7,55.0262,M,8.3453,M,,*76
$GNTHS,337.7509,A*15
$GNGGA,090435.50,2910.10138031,N,11952.94765251,E,1,28,0.7,55.0252,M,8.3453,M,,*7F
$GNTHS,337.7909,A*19
$GNGGA,090435.60,2910.10138032,N,11952.94765278,E,1,28,0.7,55.0241,M,8.3453,M,,*76
$GNTHS,337.7884,A*1D
$GNGGA,090435.70,2910.10138033,N,11952.94765303,E,1,28,0.7,55.0231,M,8.3453,M,,*7C
$GNTHS,337.9350,A*11
$GNGGA,090435.80,2910.10138038,N,11952.94765329,E,1,28,0.7,55.0221,M,8.3453,M,,*71
$GNTHS,337.8786,A*1F
$GNGGA,090435.90,2910.10138043,N,11952.94765355,E,1,28,0.7,55.0211,M,8.3453,M,,*74
$GNTHS,337.7627,A*1A
$GNGGA,090436.00,2910.10138047,N,11952.94765382,E,1,28,0.7,55.0201,M,8.3453,M,,*71
$GNRMC,090436.00,A,2910.10138047,N,11952.94765382,E,0.005,90.4,260126,5.7,W,A,C*69
$GNTHS,337.8326,A*11
$GNGGA,090436.10,2910.10138051,N,11952.94765406,E,1,28,0.7,55.0192,M,8.3453,M,,*75
$GNTHS,337.8041,A*13
$GNGGA,090436.20,2910.10138054,N,11952.94765430,E,1,28,0.7,55.0182,M,8.3453,M,,*77
$GNTHS,337.8096,A*19
$GNGGA,090436.30,2910.10138057,N,11952.94765455,E,1,28,0.7,55.0172,M,8.3453,M,,*79
$GNTHS,337.7884,A*1D
$GNGGA,090436.40,2910.10138062,N,11952.94765479,E,1,28,0.7,55.0162,M,8.3453,M,,*77
$GNTHS,337.8954,A*1E
$GNGGA,090436.50,2910.10138067,N,11952.94765504,E,1,28,0.7,55.0152,M,8.3453,M,,*7B
$GNTHS,337.7821,A*12
$GNGGA,090436.60,2910.10138071,N,11952.94765526,E,1,28,0.7,55.0143,M,8.3453,M,,*7F
$GNTHS,337.8398,A*14
$GNGGA,090436.70,2910.10138077,N,11952.94765550,E,1,28,0.7,55.0133,M,8.3453,M,,*7E
$GNTHS,337.8121,A*14
$GNGGA,090436.80,2910.10138081,N,11952.94765572,E,1,28,0.7,55.0124,M,8.3453,M,,*7E
$GNTHS,337.7966,A*10
$GNGGA,090436.90,2910.10138087,N,11952.94765594,E,1,28,0.7,55.0115,M,8.3453,M,,*73
$GNTHS,337.8154,A*16
$GNGGA,090437.00,2910.10138092,N,11952.94765615,E,1,28,0.7,55.0106,M,8.3453,M,,*77
$GNRMC,090437.00,A,2910.10138092,N,11952.94765615,E,0.003,74.8,260126,5.7,W,A,C*6B
$GNTHS,337.7367,A*1B
$GNGGA,090437.10,2910.10138098,N,11952.94765637,E,1,28,0.7,55.0097,M,8.3453,M,,*75
$GNTHS,337.8280,A*1C
$GNGGA,090437.20,2910.10138101,N,11952.94765660,E,1,28,0.7,55.0088,M,8.3453,M,,*7B
$GNTHS,337.6702,A*1D
$GNGGA,090437.30,2910.10138103,N,11952.94765685,E,1,28,0.7,55.0079,M,8.3453,M,,*7D
$GNTHS,337.7858,A*1C
$GNGGA,090437.40,2910.10138105,N,11952.94765710,E,1,28,0.7,55.0071,M,8.3453,M,,*79
$GNTHS,337.7821,A*12
$GNGGA,090437.50,2910.10138115,N,11952.94765730,E,1,28,0.7,55.0062,M,8.3453,M,,*79
$GNTHS,337.8176,A*16
$GNGGA,090437.60,2910.10138125,N,11952.94765751,E,1,28,0.7,55.0054,M,8.3453,M,,*7B
$GNTHS,337.7839,A*1B
$GNGGA,090437.70,2910.10138133,N,11952.94765771,E,1,28,0.7,55.0046,M,8.3453,M,,*7C
$GNTHS,337.8038,A*1D
$GNGGA,090437.80,2910.10138140,N,11952.94765793,E,1,28,0.7,55.0037,M,8.3453,M,,*7D
$GNTHS,337.7849,A*1C
$GNGGA,090437.90,2910.10138144,N,11952.94765815,E,1,28,0.7,55.0029,M,8.3453,M,,*76
$GNTHS,337.7158,A*15
$GNGGA,090438.00,2910.10138146,N,11952.94765838,E,1,28,0.7,55.0021,M,8.3453,M,,*75
$GNRMC,090438.00,A,2910.10138146,N,11952.94765838,E,0.005,103.5,260126,5.7,W,A,C*57
$GNTHS,337.8239,A*1E
$GNGGA,090438.10,2910.10138147,N,11952.94765859,E,1,28,0.7,55.0013,M,8.3453,M,,*73
$GNTHS,337.7991,A*18
$GNGGA,090438.20,2910.10138149,N,11952.94765881,E,1,28,0.7,55.0004,M,8.3453,M,,*7D
$GNTHS,337.7911,A*10
$GNGGA,090438.30,2910.10138148,N,11952.94765906,E,1,28,0.7,54.9996,M,8.3453,M,,*79
$GNTHS,337.7463,A*18
$GNGGA,090438.40,2910.10138146,N,11952.94765929,E,1,28,0.7,54.9988,M,8.3453,M,,*72
$GNTHS,337.8313,A*17
$GNGGA,090438.50,2910.10138145,N,11952.94765950,E,1,28,0.7,54.9980,M,8.3453,M,,*76
$GNTHS,337.8195,A*1B
$GNGGA,090438.60,2910.10138148,N,11952.94765967,E,1,28,0.7,54.9972,M,8.3453,M,,*71
$GNTHS,337.8317,A*13
$GNGGA,090438.70,2910.10138155,N,11952.94765982,E,1,28,0.7,54.9964,M,8.3453,M,,*70
$GNTHS,337.8166,A*17
$GNGGA,090438.80,2910.10138162,N,11952.94766000,E,1,28,0.7,54.9956,M,8.3453,M,,*7A
$GNTHS,337.7853,A*17
$GNGGA,090438.90,2910.10138168,N,11952.94766020,E,1,28,0.7,54.9948,M,8.3453,M,,*7C
$GNTHS,337.8167,A*16
$GNGGA,090439.00,2910.10138171,N,11952.94766040,E,1,28,0.7,54.9940,M,8.3453,M,,*72
$GNRMC,090439.00,A,2910.10138171,N,11952.94766040,E,0.004,83.8,260126,5.7,W,A,C*63
$GNTHS,337.7579,A*12
$GNGGA,090439.10,2910.10138176,N,11952.94766058,E,1,28,0.7,54.9932,M,8.3453,M,,*78
$GNTHS,337.8266,A*14
$GNGGA,090439.20,2910.10138181,N,11952.94766076,E,1,28,0.7,54.9924,M,8.3453,M,,*78
$GNTHS,337.8092,A*1D
$GNGGA,090439.30,2910.10138187,N,11952.94766093,E,1,28,0.7,54.9916,M,8.3453,M,,*75
$GNTHS,337.7973,A*14
$GNGGA,090439.40,2910.10138191,N,11952.94766114,E,1,28,0.7,54.9908,M,8.3453,M,,*74
$GNTHS,337.8143,A*10
$GNGGA,090439.50,2910.10138193,N,11952.94766136,E,1,28,0.7,54.9901,M,8.3453,M,,*7E
$GNTHS,337.7595,A*10
$GNGGA,090439.60,2910.10138193,N,11